{
  "version": "2.0",
  "source": "Wikidata + OpenStreetMap + RealSites (comprehensive)",
  "generated_at": "2025-10-18T14:13:43Z",
  "description": "Comprehensive global dive site dataset with metadata enrichment, including dive shops, marine protected areas, dive logs, and wildlife sightings",
  "validation": {
    "sites": {
      "total": 1161,
      "with_coordinates": 1161,
      "with_description": 73,
      "with_website": 1,
      "world_heritage": 0,
      "with_established_year": 3
    },
    "shops": {
      "total": 5,
      "with_contact": 1,
      "with_website": 2,
      "linked_to_sites": 3
    },
    "mpas": {
      "total": 8,
      "with_site_links": 0
    },
    "dives": {
      "total": 2876,
      "all_reference_valid_sites": true
    },
    "sightings": {
      "total": 7186,
      "all_reference_valid_dives": true
    }
  },
  "summary": {
    "total_entities": 11236,
    "sites": 1161,
    "dive_shops_operators": 5,
    "marine_protected_areas": 8,
    "dive_logs": 2876,
    "wildlife_sightings": 7186,
    "metadata_quality": "production-ready"
  },
  "sites": [
    {
      "name": "Stade Jean Dauger",
      "latitude": 43.48545,
      "longitude": -1.4794,
      "country": "France",
      "description": "multi-purpose stadium in Bayonne, France",
      "maxDepth": 40,
      "source": "dive_sites",
      "verified": true,
      "region": "Mediterranean",
      "id": "dive_site_000001",
      "createdAt": "2025-10-18T14:01:07Z",
      "license": "CC0",
      "wishlist": false,
      "visitedCount": 0,
      "website": "https://www.abrugby.fr/club/le-stade-jean-dauger",
      "established": "1937",
      "worldHeritage": false,
      "locality": "Bayonne",
      "metadata_richness": "high"
    },
    {
      "name": "Pointe de la Torche",
      "latitude": 47.836667,
      "longitude": -4.354444,
      "country": "France",
      "description": "Promontory in Finistère, France",
      "maxDepth": 40,
      "source": "dive_sites",
      "verified": true,
      "region": "Atlantic",
      "id": "dive_site_000002",
      "createdAt": "2025-10-18T14:01:07Z",
      "license": "CC0",
      "wishlist": false,
      "visitedCount": 0,
      "website": "",
      "established": "",
      "worldHeritage": false,
      "locality": "Plomeur",
      "metadata_richness": "medium"
    },
    {
      "name": "Soufrière",
      "latitude": 16.0438,
      "longitude": -61.6634,
      "country": "France",
      "description": "active stratovolcano located in Basse-Terre Island, Guadeloupe, French West Indies",
      "maxDepth": 40,
      "source": "dive_sites",
      "verified": true,
      "region": "Caribbean",
      "id": "dive_site_000003",
      "createdAt": "2025-10-18T14:01:07Z",
      "license": "CC0",
      "wishlist": false,
      "visitedCount": 0,
      "website": "",
      "established": "",
      "worldHeritage": false,
      "locality": "Saint-Claude",
      "metadata_richness": "medium"
    },
    {
      "name": "Kanbayashi Snowboard Park",
      "latitude": 36.733333,
      "longitude": 138.416667,
      "country": "Japan",
      "description": "park located in Yamanouchi, Nagano, Japan",
      "maxDepth": 40,
      "source": "dive_sites",
      "verified": true,
      "region": "Other",
      "id": "dive_site_000004",
      "createdAt": "2025-10-18T14:01:07Z",
      "license": "CC0",
      "wishlist": false,
      "visitedCount": 0,
      "website": "",
      "established": "",
      "worldHeritage": false,
      "locality": "Nagano Prefecture",
      "metadata_richness": "medium"
    },
    {
      "name": "Bayer-Sportpark Wuppertal",
      "latitude": 51.2361,
      "longitude": 7.09605,
      "country": "Germany",
      "description": "architectural structure",
      "maxDepth": 40,
      "source": "dive_sites",
      "verified": true,
      "region": "Other",
      "id": "dive_site_000005",
      "createdAt": "2025-10-18T14:01:07Z",
      "license": "CC0",
      "wishlist": false,
      "visitedCount": 0,
      "website": "",
      "established": "",
      "worldHeritage": false,
      "locality": "Wuppertal",
      "metadata_richness": "medium"
    },
    {
      "name": "Bökhiin Örgöö",
      "latitude": 47.917917,
      "longitude": 106.935278,
      "country": "Mongolia",
      "description": "sports complex in Bayanzürkh, Ulaanbaatar, Mongolia",
      "maxDepth": 40,
      "source": "dive_sites",
      "verified": true,
      "region": "Other",
      "id": "dive_site_000006",
      "createdAt": "2025-10-18T14:01:07Z",
      "license": "CC0",
      "wishlist": false,
      "visitedCount": 0,
      "website": "",
      "established": "",
      "worldHeritage": false,
      "locality": "Bayanzürkh",
      "metadata_richness": "medium"
    },
    {
      "name": "Skyline Sports Complex",
      "latitude": 40.257467,
      "longitude": -76.891083,
      "country": "United States",
      "description": "sports complex/stadium on City Island in Harrisburg, Pennsylvania, United States",
      "maxDepth": 40,
      "source": "dive_sites",
      "verified": true,
      "region": "Atlantic",
      "id": "dive_site_000007",
      "createdAt": "2025-10-18T14:01:07Z",
      "license": "CC0",
      "wishlist": false,
      "visitedCount": 0,
      "website": "",
      "established": "1987",
      "worldHeritage": false,
      "locality": "Harrisburg",
      "metadata_richness": "high"
    },
    {
      "name": "Stade Municipal",
      "latitude": -4.777778,
      "longitude": 11.866667,
      "country": "Republic of the Congo",
      "description": "stadium in Pointe-Noire, Republic of the Congo",
      "maxDepth": 40,
      "source": "dive_sites",
      "verified": true,
      "region": "Other",
      "id": "dive_site_000008",
      "createdAt": "2025-10-18T14:01:07Z",
      "license": "CC0",
      "wishlist": false,
      "visitedCount": 0,
      "website": "",
      "established": "2006",
      "worldHeritage": false,
      "locality": "Pointe-Noire",
      "metadata_richness": "high"
    },
    {
      "name": "Banner Island Ballpark",
      "latitude": 37.954856,
      "longitude": -121.297956,
      "country": "United States",
      "description": "baseball stadium in Stockton, California",
      "maxDepth": 40,
      "source": "dive_sites",
      "verified": true,
      "region": "Other",
      "id": "dive_site_000009",
      "createdAt": "2025-10-18T14:01:07Z",
      "license": "CC0",
      "wishlist": false,
      "visitedCount": 0,
      "metadata_richness": "base"
    },
    {
      "name": "Big Thunder National Training Center",
      "latitude": 48.2875,
      "longitude": -89.3833,
      "country": "Canada",
      "description": "Nordic skiing center in Thunder Bay, Ontario, Canada",
      "maxDepth": 40,
      "source": "dive_sites",
      "verified": true,
      "region": "Atlantic",
      "id": "dive_site_000010",
      "createdAt": "2025-10-18T14:01:07Z",
      "license": "CC0",
      "wishlist": false,
      "visitedCount": 0,
      "metadata_richness": "base"
    },
    {
      "name": "Bethpage Ballpark",
      "latitude": 40.765,
      "longitude": -73.192222,
      "country": "United States",
      "description": "baseball park in Central Islip, New York that serves as the home of the Long Island Ducks",
      "maxDepth": 40,
      "source": "dive_sites",
      "verified": true,
      "region": "Atlantic",
      "id": "dive_site_000011",
      "createdAt": "2025-10-18T14:01:07Z",
      "license": "CC0",
      "wishlist": false,
      "visitedCount": 0,
      "metadata_richness": "base"
    },
    {
      "name": "Bay Meadows Racetrack",
      "latitude": 37.543361,
      "longitude": -122.297739,
      "country": "United States",
      "description": "Auto and horse racing track in San Mateo, California",
      "maxDepth": 40,
      "source": "dive_sites",
      "verified": true,
      "region": "Other",
      "id": "dive_site_000012",
      "createdAt": "2025-10-18T14:01:07Z",
      "license": "CC0",
      "wishlist": false,
      "visitedCount": 0,
      "metadata_richness": "base"
    },
    {
      "name": "Bill Beck Field",
      "latitude": 41.484958,
      "longitude": -71.537513,
      "country": "United States",
      "description": "baseball venue in Kingston, Rhode Island",
      "maxDepth": 40,
      "source": "dive_sites",
      "verified": true,
      "region": "Atlantic",
      "id": "dive_site_000013",
      "createdAt": "2025-10-18T14:01:07Z",
      "license": "CC0",
      "wishlist": false,
      "visitedCount": 0,
      "metadata_richness": "base"
    },
    {
      "name": "Cycledrome",
      "latitude": 41.857,
      "longitude": -71.402,
      "country": "United States",
      "description": "sports venue in Providence, Rhode Island",
      "maxDepth": 40,
      "source": "dive_sites",
      "verified": true,
      "region": "Atlantic",
      "id": "dive_site_000014",
      "createdAt": "2025-10-18T14:01:07Z",
      "license": "CC0",
      "wishlist": false,
      "visitedCount": 0,
      "website": "",
      "established": "",
      "worldHeritage": false,
      "locality": "Providence",
      "metadata_richness": "medium"
    },
    {
      "name": "Crescent Point Place",
      "latitude": 49.6659,
      "longitude": -103.8605,
      "country": "Canada",
      "description": "indoor arena in Saskatchewan, Canada",
      "maxDepth": 40,
      "source": "dive_sites",
      "verified": true,
      "region": "Other",
      "id": "dive_site_000015",
      "createdAt": "2025-10-18T14:01:07Z",
      "license": "CC0",
      "wishlist": false,
      "visitedCount": 0,
      "website": "",
      "established": "",
      "worldHeritage": false,
      "locality": "",
      "metadata_richness": "medium"
    },
    {
      "name": "Cornwall Park Stadium",
      "latitude": -36.8948,
      "longitude": 174.782,
      "country": "New Zealand",
      "description": "cricket club in Auckland, New Zealand",
      "maxDepth": 40,
      "source": "dive_sites",
      "verified": true,
      "region": "Pacific",
      "id": "dive_site_000016",
      "createdAt": "2025-10-18T14:01:07Z",
      "license": "CC0",
      "wishlist": false,
      "visitedCount": 0,
      "website": "",
      "established": "",
      "worldHeritage": false,
      "locality": "Auckland Region",
      "metadata_richness": "medium"
    },
    {
      "name": "Estadio Vicente Carreño Alonso",
      "latitude": 28.723,
      "longitude": -13.875,
      "country": "Spain",
      "description": "stadium in Corralejo, Canary Islands, Spain",
      "maxDepth": 40,
      "source": "dive_sites",
      "verified": true,
      "region": "Atlantic",
      "id": "dive_site_000017",
      "createdAt": "2025-10-18T14:01:07Z",
      "license": "CC0",
      "wishlist": false,
      "visitedCount": 0,
      "metadata_richness": "base"
    },
    {
      "name": "Calvi Plonge",
      "latitude": 42.565213,
      "longitude": 8.756508,
      "description": "",
      "type": "diving",
      "source": "OpenStreetMap",
      "verified": true,
      "maxDepth": 40,
      "region": "Mediterranean",
      "id": "dive_site_000018",
      "createdAt": "2025-10-18T14:03:51Z",
      "license": "ODbL",
      "wishlist": false,
      "visitedCount": 0,
      "metadata_richness": "base"
    },
    {
      "name": "St John's Habili Gaffar",
      "latitude": 23.426923,
      "longitude": 35.876394,
      "description": "",
      "type": "scuba_diving",
      "source": "OpenStreetMap",
      "verified": true,
      "maxDepth": 40,
      "region": "Red Sea",
      "id": "dive_site_000019",
      "createdAt": "2025-10-18T14:03:51Z",
      "license": "ODbL",
      "wishlist": false,
      "visitedCount": 0,
      "metadata_richness": "base"
    },
    {
      "name": "Hausriff Zabargad Beach Resort",
      "latitude": 24.2571,
      "longitude": 35.406533,
      "description": "",
      "type": "scuba_diving",
      "source": "OpenStreetMap",
      "verified": true,
      "maxDepth": 40,
      "region": "Red Sea",
      "id": "dive_site_000020",
      "createdAt": "2025-10-18T14:03:51Z",
      "license": "ODbL",
      "wishlist": false,
      "visitedCount": 0,
      "metadata_richness": "base"
    },
    {
      "name": "Ras Bob Reef",
      "latitude": 27.963333,
      "longitude": 34.413333,
      "description": "",
      "type": "scuba_diving",
      "source": "OpenStreetMap",
      "verified": true,
      "maxDepth": 40,
      "region": "Red Sea",
      "id": "dive_site_000021",
      "createdAt": "2025-10-18T14:03:51Z",
      "license": "ODbL",
      "wishlist": false,
      "visitedCount": 0,
      "metadata_richness": "base"
    },
    {
      "name": "Ras Ghamila Reef",
      "latitude": 27.98,
      "longitude": 34.436667,
      "description": "",
      "type": "scuba_diving",
      "source": "OpenStreetMap",
      "verified": true,
      "maxDepth": 40,
      "region": "Red Sea",
      "id": "dive_site_000022",
      "createdAt": "2025-10-18T14:03:51Z",
      "license": "ODbL",
      "wishlist": false,
      "visitedCount": 0,
      "metadata_richness": "base"
    },
    {
      "name": "شعب بدكين",
      "latitude": 23.469137,
      "longitude": 35.532245,
      "description": "",
      "type": "dive_site",
      "source": "OpenStreetMap",
      "verified": true,
      "maxDepth": 40,
      "region": "Red Sea",
      "id": "dive_site_000023",
      "createdAt": "2025-10-18T14:03:51Z",
      "license": "ODbL",
      "wishlist": false,
      "visitedCount": 0,
      "metadata_richness": "base"
    },
    {
      "name": "شعب أبو درج",
      "latitude": 29.372045,
      "longitude": 32.576715,
      "description": "",
      "type": "dive_site",
      "source": "OpenStreetMap",
      "verified": true,
      "maxDepth": 40,
      "region": "Red Sea",
      "id": "dive_site_000024",
      "createdAt": "2025-10-18T14:03:51Z",
      "license": "ODbL",
      "wishlist": false,
      "visitedCount": 0,
      "metadata_richness": "base"
    },
    {
      "name": "المستبط",
      "latitude": 20.883333,
      "longitude": 39.366667,
      "description": "",
      "type": "dive_site",
      "source": "OpenStreetMap",
      "verified": true,
      "maxDepth": 40,
      "region": "Red Sea",
      "id": "dive_site_000025",
      "createdAt": "2025-10-18T14:03:51Z",
      "license": "ODbL",
      "wishlist": false,
      "visitedCount": 0,
      "metadata_richness": "base"
    },
    {
      "name": "قطع الطفية",
      "latitude": 21.016667,
      "longitude": 39.166667,
      "description": "",
      "type": "dive_site",
      "source": "OpenStreetMap",
      "verified": true,
      "maxDepth": 40,
      "region": "Red Sea",
      "id": "dive_site_000026",
      "createdAt": "2025-10-18T14:03:51Z",
      "license": "ODbL",
      "wishlist": false,
      "visitedCount": 0,
      "metadata_richness": "base"
    },
    {
      "name": "عباد",
      "latitude": 20.8,
      "longitude": 39.366667,
      "description": "",
      "type": "dive_site",
      "source": "OpenStreetMap",
      "verified": true,
      "maxDepth": 40,
      "region": "Red Sea",
      "id": "dive_site_000027",
      "createdAt": "2025-10-18T14:03:51Z",
      "license": "ODbL",
      "wishlist": false,
      "visitedCount": 0,
      "metadata_richness": "base"
    },
    {
      "name": "عباد",
      "latitude": 20.8,
      "longitude": 39.3,
      "description": "",
      "type": "dive_site",
      "source": "OpenStreetMap",
      "verified": true,
      "maxDepth": 40,
      "region": "Red Sea",
      "id": "dive_site_000028",
      "createdAt": "2025-10-18T14:03:51Z",
      "license": "ODbL",
      "wishlist": false,
      "visitedCount": 0,
      "metadata_richness": "base"
    },
    {
      "name": "بحيرة",
      "latitude": 20.733333,
      "longitude": 39.4,
      "description": "",
      "type": "dive_site",
      "source": "OpenStreetMap",
      "verified": true,
      "maxDepth": 40,
      "region": "Red Sea",
      "id": "dive_site_000029",
      "createdAt": "2025-10-18T14:03:51Z",
      "license": "ODbL",
      "wishlist": false,
      "visitedCount": 0,
      "metadata_richness": "base"
    },
    {
      "name": "Laguna Reef",
      "latitude": 28.006443,
      "longitude": 34.484506,
      "description": "",
      "type": "scuba_diving",
      "source": "OpenStreetMap",
      "verified": true,
      "maxDepth": 40,
      "region": "Red Sea",
      "id": "dive_site_000030",
      "createdAt": "2025-10-18T14:03:51Z",
      "license": "ODbL",
      "wishlist": false,
      "visitedCount": 0,
      "metadata_richness": "base"
    },
    {
      "name": "Abu Salama",
      "latitude": 27.341682,
      "longitude": 33.782927,
      "description": "",
      "type": "scuba_diving",
      "source": "OpenStreetMap",
      "verified": true,
      "maxDepth": 40,
      "region": "Red Sea",
      "id": "dive_site_000031",
      "createdAt": "2025-10-18T14:03:51Z",
      "license": "ODbL",
      "wishlist": false,
      "visitedCount": 0,
      "metadata_richness": "base"
    },
    {
      "name": "May Zegzeg cascading river",
      "latitude": 13.638037,
      "longitude": 39.200277,
      "description": "May Zegzeg cascading river",
      "type": "dive_site",
      "source": "OpenStreetMap",
      "verified": true,
      "maxDepth": 40,
      "region": "Red Sea",
      "id": "dive_site_000032",
      "createdAt": "2025-10-18T14:03:51Z",
      "license": "ODbL",
      "wishlist": false,
      "visitedCount": 0,
      "metadata_richness": "base"
    },
    {
      "name": "Wadi Lahmy Azur Housereef",
      "latitude": 24.237632,
      "longitude": 35.416207,
      "description": "",
      "type": "scuba_diving",
      "source": "OpenStreetMap",
      "verified": true,
      "maxDepth": 40,
      "region": "Red Sea",
      "id": "dive_site_000033",
      "createdAt": "2025-10-18T14:03:51Z",
      "license": "ODbL",
      "wishlist": false,
      "visitedCount": 0,
      "metadata_richness": "base"
    },
    {
      "name": "Seascope",
      "latitude": 27.223505,
      "longitude": 33.841603,
      "description": "",
      "type": "diving",
      "source": "OpenStreetMap",
      "verified": true,
      "maxDepth": 40,
      "region": "Red Sea",
      "id": "dive_site_000034",
      "createdAt": "2025-10-18T14:03:51Z",
      "license": "ODbL",
      "wishlist": false,
      "visitedCount": 0,
      "metadata_richness": "base"
    },
    {
      "name": "شعب أبو خبان",
      "latitude": 17.533333,
      "longitude": 41.788889,
      "description": "",
      "type": "dive_site",
      "source": "OpenStreetMap",
      "verified": true,
      "maxDepth": 40,
      "region": "Red Sea",
      "id": "dive_site_000035",
      "createdAt": "2025-10-18T14:03:51Z",
      "license": "ODbL",
      "wishlist": false,
      "visitedCount": 0,
      "metadata_richness": "base"
    },
    {
      "name": "شعب مراس",
      "latitude": 18.013998,
      "longitude": 40.810432,
      "description": "",
      "type": "dive_site",
      "source": "OpenStreetMap",
      "verified": true,
      "maxDepth": 40,
      "region": "Red Sea",
      "id": "dive_site_000036",
      "createdAt": "2025-10-18T14:03:51Z",
      "license": "ODbL",
      "wishlist": false,
      "visitedCount": 0,
      "metadata_richness": "base"
    },
    {
      "name": "Novotel House Reef",
      "latitude": 25.954011,
      "longitude": 34.381711,
      "description": "",
      "type": "scuba_diving",
      "source": "OpenStreetMap",
      "verified": true,
      "maxDepth": 40,
      "region": "Red Sea",
      "id": "dive_site_000037",
      "createdAt": "2025-10-18T14:03:51Z",
      "license": "ODbL",
      "wishlist": false,
      "visitedCount": 0,
      "metadata_richness": "base"
    },
    {
      "name": "Sha'ab El Erg",
      "latitude": 27.412891,
      "longitude": 33.856044,
      "description": "",
      "type": "scuba_diving",
      "source": "OpenStreetMap",
      "verified": true,
      "maxDepth": 40,
      "region": "Red Sea",
      "id": "dive_site_000038",
      "createdAt": "2025-10-18T14:03:51Z",
      "license": "ODbL",
      "wishlist": false,
      "visitedCount": 0,
      "metadata_richness": "base"
    },
    {
      "name": "شعب قحم",
      "latitude": 21.451478,
      "longitude": 39.111109,
      "description": "",
      "type": "dive_site",
      "source": "OpenStreetMap",
      "verified": true,
      "maxDepth": 40,
      "region": "Red Sea",
      "id": "dive_site_000039",
      "createdAt": "2025-10-18T14:03:51Z",
      "license": "ODbL",
      "wishlist": false,
      "visitedCount": 0,
      "metadata_richness": "base"
    },
    {
      "name": "قطعة القرش",
      "latitude": 20.135509,
      "longitude": 40.096937,
      "description": "",
      "type": "dive_site",
      "source": "OpenStreetMap",
      "verified": true,
      "maxDepth": 40,
      "region": "Red Sea",
      "id": "dive_site_000040",
      "createdAt": "2025-10-18T14:03:51Z",
      "license": "ODbL",
      "wishlist": false,
      "visitedCount": 0,
      "metadata_richness": "base"
    },
    {
      "name": "شعب الجفّين",
      "latitude": 20.204726,
      "longitude": 40.062342,
      "description": "",
      "type": "dive_site",
      "source": "OpenStreetMap",
      "verified": true,
      "maxDepth": 40,
      "region": "Red Sea",
      "id": "dive_site_000041",
      "createdAt": "2025-10-18T14:03:51Z",
      "license": "ODbL",
      "wishlist": false,
      "visitedCount": 0,
      "metadata_richness": "base"
    },
    {
      "name": "شعب الساقة",
      "latitude": 19.358144,
      "longitude": 40.112258,
      "description": "",
      "type": "dive_site",
      "source": "OpenStreetMap",
      "verified": true,
      "maxDepth": 40,
      "region": "Red Sea",
      "id": "dive_site_000042",
      "createdAt": "2025-10-18T14:03:51Z",
      "license": "ODbL",
      "wishlist": false,
      "visitedCount": 0,
      "metadata_richness": "base"
    },
    {
      "name": "الصمديّة",
      "latitude": 21.422281,
      "longitude": 39.101835,
      "description": "",
      "type": "dive_site",
      "source": "OpenStreetMap",
      "verified": true,
      "maxDepth": 40,
      "region": "Red Sea",
      "id": "dive_site_000043",
      "createdAt": "2025-10-18T14:03:51Z",
      "license": "ODbL",
      "wishlist": false,
      "visitedCount": 0,
      "metadata_richness": "base"
    },
    {
      "name": "شعبان الشعبة",
      "latitude": 24.444273,
      "longitude": 37.204635,
      "description": "",
      "type": "dive_site",
      "source": "OpenStreetMap",
      "verified": true,
      "maxDepth": 40,
      "region": "Red Sea",
      "id": "dive_site_000044",
      "createdAt": "2025-10-18T14:03:51Z",
      "license": "ODbL",
      "wishlist": false,
      "visitedCount": 0,
      "metadata_richness": "base"
    },
    {
      "name": "شعب الوسطى",
      "latitude": 21.405193,
      "longitude": 39.15431,
      "description": "",
      "type": "dive_site",
      "source": "OpenStreetMap",
      "verified": true,
      "maxDepth": 40,
      "region": "Red Sea",
      "id": "dive_site_000045",
      "createdAt": "2025-10-18T14:03:51Z",
      "license": "ODbL",
      "wishlist": false,
      "visitedCount": 0,
      "metadata_richness": "base"
    },
    {
      "name": "الشعبين",
      "latitude": 21.39742,
      "longitude": 39.106068,
      "description": "",
      "type": "dive_site",
      "source": "OpenStreetMap",
      "verified": true,
      "maxDepth": 40,
      "region": "Red Sea",
      "id": "dive_site_000046",
      "createdAt": "2025-10-18T14:03:51Z",
      "license": "ODbL",
      "wishlist": false,
      "visitedCount": 0,
      "metadata_richness": "base"
    },
    {
      "name": "شعب أبو اللقاء",
      "latitude": 17.502358,
      "longitude": 42.23709,
      "description": "",
      "type": "dive_site",
      "source": "OpenStreetMap",
      "verified": true,
      "maxDepth": 40,
      "region": "Red Sea",
      "id": "dive_site_000047",
      "createdAt": "2025-10-18T14:03:51Z",
      "license": "ODbL",
      "wishlist": false,
      "visitedCount": 0,
      "metadata_richness": "base"
    },
    {
      "name": "المنخفضة",
      "latitude": 16.553894,
      "longitude": 42.241951,
      "description": "",
      "type": "dive_site",
      "source": "OpenStreetMap",
      "verified": true,
      "maxDepth": 40,
      "region": "Red Sea",
      "id": "dive_site_000048",
      "createdAt": "2025-10-18T14:03:51Z",
      "license": "ODbL",
      "wishlist": false,
      "visitedCount": 0,
      "metadata_richness": "base"
    },
    {
      "name": "شعب الكبير",
      "latitude": 21.681777,
      "longitude": 38.834058,
      "description": "",
      "type": "dive_site",
      "source": "OpenStreetMap",
      "verified": true,
      "maxDepth": 40,
      "region": "Red Sea",
      "id": "dive_site_000049",
      "createdAt": "2025-10-18T14:03:51Z",
      "license": "ODbL",
      "wishlist": false,
      "visitedCount": 0,
      "metadata_richness": "base"
    },
    {
      "name": "أمّ السيل",
      "latitude": 21.414046,
      "longitude": 39.113309,
      "description": "",
      "type": "dive_site",
      "source": "OpenStreetMap",
      "verified": true,
      "maxDepth": 40,
      "region": "Red Sea",
      "id": "dive_site_000050",
      "createdAt": "2025-10-18T14:03:51Z",
      "license": "ODbL",
      "wishlist": false,
      "visitedCount": 0,
      "metadata_richness": "base"
    },
    {
      "name": "الشعب الأخضر",
      "latitude": 23.877481,
      "longitude": 38.069899,
      "description": "",
      "type": "dive_site",
      "source": "OpenStreetMap",
      "verified": true,
      "maxDepth": 40,
      "region": "Red Sea",
      "id": "dive_site_000051",
      "createdAt": "2025-10-18T14:03:51Z",
      "license": "ODbL",
      "wishlist": false,
      "visitedCount": 0,
      "metadata_richness": "base"
    },
    {
      "name": "شعب جدّة",
      "latitude": 21.441451,
      "longitude": 39.107145,
      "description": "",
      "type": "dive_site",
      "source": "OpenStreetMap",
      "verified": true,
      "maxDepth": 40,
      "region": "Red Sea",
      "id": "dive_site_000052",
      "createdAt": "2025-10-18T14:03:51Z",
      "license": "ODbL",
      "wishlist": false,
      "visitedCount": 0,
      "metadata_richness": "base"
    },
    {
      "name": "شعب جهان",
      "latitude": 21.468025,
      "longitude": 39.131215,
      "description": "",
      "type": "dive_site",
      "source": "OpenStreetMap",
      "verified": true,
      "maxDepth": 40,
      "region": "Red Sea",
      "id": "dive_site_000053",
      "createdAt": "2025-10-18T14:03:51Z",
      "license": "ODbL",
      "wishlist": false,
      "visitedCount": 0,
      "metadata_richness": "base"
    },
    {
      "name": "ابو شقور",
      "latitude": 16.924699,
      "longitude": 42.289551,
      "description": "",
      "type": "dive_site",
      "source": "OpenStreetMap",
      "verified": true,
      "maxDepth": 40,
      "region": "Red Sea",
      "id": "dive_site_000054",
      "createdAt": "2025-10-18T14:03:51Z",
      "license": "ODbL",
      "wishlist": false,
      "visitedCount": 0,
      "metadata_richness": "base"
    },
    {
      "name": "شعب أمّ الخلخلة",
      "latitude": 21.490856,
      "longitude": 39.125587,
      "description": "",
      "type": "dive_site",
      "source": "OpenStreetMap",
      "verified": true,
      "maxDepth": 40,
      "region": "Red Sea",
      "id": "dive_site_000055",
      "createdAt": "2025-10-18T14:03:51Z",
      "license": "ODbL",
      "wishlist": false,
      "visitedCount": 0,
      "metadata_richness": "base"
    },
    {
      "name": "شعب الأبيض",
      "latitude": 24.898015,
      "longitude": 37.14013,
      "description": "",
      "type": "dive_site",
      "source": "OpenStreetMap",
      "verified": true,
      "maxDepth": 40,
      "region": "Red Sea",
      "id": "dive_site_000056",
      "createdAt": "2025-10-18T14:03:51Z",
      "license": "ODbL",
      "wishlist": false,
      "visitedCount": 0,
      "metadata_richness": "base"
    },
    {
      "name": "قبريّة",
      "latitude": 24.013802,
      "longitude": 37.973879,
      "description": "",
      "type": "dive_site",
      "source": "OpenStreetMap",
      "verified": true,
      "maxDepth": 40,
      "region": "Red Sea",
      "id": "dive_site_000057",
      "createdAt": "2025-10-18T14:03:51Z",
      "license": "ODbL",
      "wishlist": false,
      "visitedCount": 0,
      "metadata_richness": "base"
    },
    {
      "name": "شعب محمود",
      "latitude": 21.406302,
      "longitude": 39.130608,
      "description": "",
      "type": "dive_site",
      "source": "OpenStreetMap",
      "verified": true,
      "maxDepth": 40,
      "region": "Red Sea",
      "id": "dive_site_000058",
      "createdAt": "2025-10-18T14:03:51Z",
      "license": "ODbL",
      "wishlist": false,
      "visitedCount": 0,
      "metadata_richness": "base"
    },
    {
      "name": "شعب الجبل",
      "latitude": 21.495029,
      "longitude": 39.130265,
      "description": "",
      "type": "dive_site",
      "source": "OpenStreetMap",
      "verified": true,
      "maxDepth": 40,
      "region": "Red Sea",
      "id": "dive_site_000059",
      "createdAt": "2025-10-18T14:03:51Z",
      "license": "ODbL",
      "wishlist": false,
      "visitedCount": 0,
      "metadata_richness": "base"
    },
    {
      "name": "شعب مساوك",
      "latitude": 26.945152,
      "longitude": 35.814951,
      "description": "",
      "type": "dive_site",
      "source": "OpenStreetMap",
      "verified": true,
      "maxDepth": 40,
      "region": "Red Sea",
      "id": "dive_site_000060",
      "createdAt": "2025-10-18T14:03:51Z",
      "license": "ODbL",
      "wishlist": false,
      "visitedCount": 0,
      "metadata_richness": "base"
    },
    {
      "name": "أبو حارث",
      "latitude": 21.454697,
      "longitude": 39.149665,
      "description": "",
      "type": "dive_site",
      "source": "OpenStreetMap",
      "verified": true,
      "maxDepth": 40,
      "region": "Red Sea",
      "id": "dive_site_000061",
      "createdAt": "2025-10-18T14:03:51Z",
      "license": "ODbL",
      "wishlist": false,
      "visitedCount": 0,
      "metadata_richness": "base"
    },
    {
      "name": "شعب التومان",
      "latitude": 20.183655,
      "longitude": 39.825125,
      "description": "",
      "type": "dive_site",
      "source": "OpenStreetMap",
      "verified": true,
      "maxDepth": 40,
      "region": "Red Sea",
      "id": "dive_site_000062",
      "createdAt": "2025-10-18T14:03:51Z",
      "license": "ODbL",
      "wishlist": false,
      "visitedCount": 0,
      "metadata_richness": "base"
    },
    {
      "name": "أبو لبدة",
      "latitude": 26.573538,
      "longitude": 36.066324,
      "description": "",
      "type": "dive_site",
      "source": "OpenStreetMap",
      "verified": true,
      "maxDepth": 40,
      "region": "Red Sea",
      "id": "dive_site_000063",
      "createdAt": "2025-10-18T14:03:51Z",
      "license": "ODbL",
      "wishlist": false,
      "visitedCount": 0,
      "metadata_richness": "base"
    },
    {
      "name": "الشعب الكبير",
      "latitude": 17.325899,
      "longitude": 42.311338,
      "description": "",
      "type": "dive_site",
      "source": "OpenStreetMap",
      "verified": true,
      "maxDepth": 40,
      "region": "Red Sea",
      "id": "dive_site_000064",
      "createdAt": "2025-10-18T14:03:51Z",
      "license": "ODbL",
      "wishlist": false,
      "visitedCount": 0,
      "metadata_richness": "base"
    },
    {
      "name": "شعب المسماري",
      "latitude": 21.324751,
      "longitude": 39.031916,
      "description": "",
      "type": "dive_site",
      "source": "OpenStreetMap",
      "verified": true,
      "maxDepth": 40,
      "region": "Red Sea",
      "id": "dive_site_000065",
      "createdAt": "2025-10-18T14:03:51Z",
      "license": "ODbL",
      "wishlist": false,
      "visitedCount": 0,
      "metadata_richness": "base"
    },
    {
      "name": "شعب سليم",
      "latitude": 19.941592,
      "longitude": 39.989236,
      "description": "",
      "type": "dive_site",
      "source": "OpenStreetMap",
      "verified": true,
      "maxDepth": 40,
      "region": "Red Sea",
      "id": "dive_site_000066",
      "createdAt": "2025-10-18T14:03:51Z",
      "license": "ODbL",
      "wishlist": false,
      "visitedCount": 0,
      "metadata_richness": "base"
    },
    {
      "name": "شعبان الشجعه",
      "latitude": 20.34424,
      "longitude": 39.514825,
      "description": "",
      "type": "dive_site",
      "source": "OpenStreetMap",
      "verified": true,
      "maxDepth": 40,
      "region": "Red Sea",
      "id": "dive_site_000067",
      "createdAt": "2025-10-18T14:03:51Z",
      "license": "ODbL",
      "wishlist": false,
      "visitedCount": 0,
      "metadata_richness": "base"
    },
    {
      "name": "شعب ماء مبارك",
      "latitude": 24.760093,
      "longitude": 37.093564,
      "description": "",
      "type": "dive_site",
      "source": "OpenStreetMap",
      "verified": true,
      "maxDepth": 40,
      "region": "Red Sea",
      "id": "dive_site_000068",
      "createdAt": "2025-10-18T14:03:51Z",
      "license": "ODbL",
      "wishlist": false,
      "visitedCount": 0,
      "metadata_richness": "base"
    },
    {
      "name": "شعب البلم",
      "latitude": 27.820197,
      "longitude": 35.103305,
      "description": "",
      "type": "dive_site",
      "source": "OpenStreetMap",
      "verified": true,
      "maxDepth": 40,
      "region": "Red Sea",
      "id": "dive_site_000069",
      "createdAt": "2025-10-18T14:03:51Z",
      "license": "ODbL",
      "wishlist": false,
      "visitedCount": 0,
      "metadata_richness": "base"
    },
    {
      "name": "أمّ السجل",
      "latitude": 21.400062,
      "longitude": 39.099517,
      "description": "",
      "type": "dive_site",
      "source": "OpenStreetMap",
      "verified": true,
      "maxDepth": 40,
      "region": "Red Sea",
      "id": "dive_site_000070",
      "createdAt": "2025-10-18T14:03:51Z",
      "license": "ODbL",
      "wishlist": false,
      "visitedCount": 0,
      "metadata_richness": "base"
    },
    {
      "name": "القاد الوسطاني",
      "latitude": 20.032801,
      "longitude": 40.145448,
      "description": "",
      "type": "dive_site",
      "source": "OpenStreetMap",
      "verified": true,
      "maxDepth": 40,
      "region": "Red Sea",
      "id": "dive_site_000071",
      "createdAt": "2025-10-18T14:03:51Z",
      "license": "ODbL",
      "wishlist": false,
      "visitedCount": 0,
      "metadata_richness": "base"
    },
    {
      "name": "شعب السبعة",
      "latitude": 23.797566,
      "longitude": 37.931616,
      "description": "",
      "type": "dive_site",
      "source": "OpenStreetMap",
      "verified": true,
      "maxDepth": 40,
      "region": "Red Sea",
      "id": "dive_site_000072",
      "createdAt": "2025-10-18T14:03:51Z",
      "license": "ODbL",
      "wishlist": false,
      "visitedCount": 0,
      "metadata_richness": "base"
    },
    {
      "name": "دراكة",
      "latitude": 16.853202,
      "longitude": 42.3008,
      "description": "",
      "type": "dive_site",
      "source": "OpenStreetMap",
      "verified": true,
      "maxDepth": 40,
      "region": "Red Sea",
      "id": "dive_site_000073",
      "createdAt": "2025-10-18T14:03:51Z",
      "license": "ODbL",
      "wishlist": false,
      "visitedCount": 0,
      "metadata_richness": "base"
    },
    {
      "name": "وصيّة",
      "latitude": 21.423127,
      "longitude": 39.128502,
      "description": "",
      "type": "dive_site",
      "source": "OpenStreetMap",
      "verified": true,
      "maxDepth": 40,
      "region": "Red Sea",
      "id": "dive_site_000074",
      "createdAt": "2025-10-18T14:03:51Z",
      "license": "ODbL",
      "wishlist": false,
      "visitedCount": 0,
      "metadata_richness": "base"
    },
    {
      "name": "شعب السفلاني",
      "latitude": 23.526539,
      "longitude": 38.235499,
      "description": "",
      "type": "dive_site",
      "source": "OpenStreetMap",
      "verified": true,
      "maxDepth": 40,
      "region": "Red Sea",
      "id": "dive_site_000075",
      "createdAt": "2025-10-18T14:03:51Z",
      "license": "ODbL",
      "wishlist": false,
      "visitedCount": 0,
      "metadata_richness": "base"
    },
    {
      "name": "شعب هبل",
      "latitude": 20.113218,
      "longitude": 40.220973,
      "description": "",
      "type": "dive_site",
      "source": "OpenStreetMap",
      "verified": true,
      "maxDepth": 40,
      "region": "Red Sea",
      "id": "dive_site_000076",
      "createdAt": "2025-10-18T14:03:51Z",
      "license": "ODbL",
      "wishlist": false,
      "visitedCount": 0,
      "metadata_richness": "base"
    },
    {
      "name": "أمّ القطع",
      "latitude": 21.432091,
      "longitude": 39.109613,
      "description": "",
      "type": "dive_site",
      "source": "OpenStreetMap",
      "verified": true,
      "maxDepth": 40,
      "region": "Red Sea",
      "id": "dive_site_000077",
      "createdAt": "2025-10-18T14:03:51Z",
      "license": "ODbL",
      "wishlist": false,
      "visitedCount": 0,
      "metadata_richness": "base"
    },
    {
      "name": "طويل رغوان",
      "latitude": 20.644029,
      "longitude": 39.375859,
      "description": "",
      "type": "dive_site",
      "source": "OpenStreetMap",
      "verified": true,
      "maxDepth": 40,
      "region": "Red Sea",
      "id": "dive_site_000078",
      "createdAt": "2025-10-18T14:03:51Z",
      "license": "ODbL",
      "wishlist": false,
      "visitedCount": 0,
      "metadata_richness": "base"
    },
    {
      "name": "مروّس",
      "latitude": 21.407677,
      "longitude": 39.094929,
      "description": "",
      "type": "dive_site",
      "source": "OpenStreetMap",
      "verified": true,
      "maxDepth": 40,
      "region": "Red Sea",
      "id": "dive_site_000079",
      "createdAt": "2025-10-18T14:03:51Z",
      "license": "ODbL",
      "wishlist": false,
      "visitedCount": 0,
      "metadata_richness": "base"
    },
    {
      "name": "برّي",
      "latitude": 21.481616,
      "longitude": 39.148734,
      "description": "",
      "type": "dive_site",
      "source": "OpenStreetMap",
      "verified": true,
      "maxDepth": 40,
      "region": "Red Sea",
      "id": "dive_site_000080",
      "createdAt": "2025-10-18T14:03:51Z",
      "license": "ODbL",
      "wishlist": false,
      "visitedCount": 0,
      "metadata_richness": "base"
    },
    {
      "name": "شعب جنابيات",
      "latitude": 19.965847,
      "longitude": 39.947924,
      "description": "",
      "type": "dive_site",
      "source": "OpenStreetMap",
      "verified": true,
      "maxDepth": 40,
      "region": "Red Sea",
      "id": "dive_site_000081",
      "createdAt": "2025-10-18T14:03:51Z",
      "license": "ODbL",
      "wishlist": false,
      "visitedCount": 0,
      "metadata_richness": "base"
    },
    {
      "name": "قطعة الجبل",
      "latitude": 20.07621,
      "longitude": 40.071324,
      "description": "",
      "type": "dive_site",
      "source": "OpenStreetMap",
      "verified": true,
      "maxDepth": 40,
      "region": "Red Sea",
      "id": "dive_site_000082",
      "createdAt": "2025-10-18T14:03:51Z",
      "license": "ODbL",
      "wishlist": false,
      "visitedCount": 0,
      "metadata_richness": "base"
    },
    {
      "name": "شعب تستس",
      "latitude": 23.649716,
      "longitude": 38.032778,
      "description": "",
      "type": "dive_site",
      "source": "OpenStreetMap",
      "verified": true,
      "maxDepth": 40,
      "region": "Red Sea",
      "id": "dive_site_000083",
      "createdAt": "2025-10-18T14:03:51Z",
      "license": "ODbL",
      "wishlist": false,
      "visitedCount": 0,
      "metadata_richness": "base"
    },
    {
      "name": "Tank museum",
      "latitude": 27.138335,
      "longitude": 33.887715,
      "description": "",
      "type": "diving",
      "source": "OpenStreetMap",
      "verified": true,
      "maxDepth": 40,
      "region": "Red Sea",
      "id": "dive_site_000084",
      "createdAt": "2025-10-18T14:03:51Z",
      "license": "ODbL",
      "wishlist": false,
      "visitedCount": 0,
      "metadata_richness": "base"
    },
    {
      "name": "شعب جوردون Gordon Reef",
      "latitude": 27.987558,
      "longitude": 34.45347,
      "description": "",
      "type": "water_sports;scuba_diving",
      "source": "OpenStreetMap",
      "verified": true,
      "maxDepth": 40,
      "region": "Red Sea",
      "id": "dive_site_000085",
      "createdAt": "2025-10-18T14:03:51Z",
      "license": "ODbL",
      "wishlist": false,
      "visitedCount": 0,
      "metadata_richness": "base"
    },
    {
      "name": "شعب توماس",
      "latitude": 27.992734,
      "longitude": 34.460096,
      "description": "",
      "type": "scuba_diving",
      "source": "OpenStreetMap",
      "verified": true,
      "maxDepth": 40,
      "region": "Red Sea",
      "id": "dive_site_000086",
      "createdAt": "2025-10-18T14:03:51Z",
      "license": "ODbL",
      "wishlist": false,
      "visitedCount": 0,
      "metadata_richness": "base"
    },
    {
      "name": "شعب وودهاوس",
      "latitude": 28.001223,
      "longitude": 34.464992,
      "description": "",
      "type": "scuba_diving",
      "source": "OpenStreetMap",
      "verified": true,
      "maxDepth": 40,
      "region": "Red Sea",
      "id": "dive_site_000087",
      "createdAt": "2025-10-18T14:03:51Z",
      "license": "ODbL",
      "wishlist": false,
      "visitedCount": 0,
      "metadata_richness": "base"
    },
    {
      "name": "شعب جاكسون",
      "latitude": 28.008815,
      "longitude": 34.473159,
      "description": "",
      "type": "scuba_diving",
      "source": "OpenStreetMap",
      "verified": true,
      "maxDepth": 40,
      "region": "Red Sea",
      "id": "dive_site_000088",
      "createdAt": "2025-10-18T14:03:51Z",
      "license": "ODbL",
      "wishlist": false,
      "visitedCount": 0,
      "metadata_richness": "base"
    },
    {
      "name": "Abu Hashish Reef",
      "latitude": 27.022801,
      "longitude": 33.918148,
      "description": "",
      "type": "dive_site",
      "source": "OpenStreetMap",
      "verified": true,
      "maxDepth": 40,
      "region": "Red Sea",
      "id": "dive_site_000089",
      "createdAt": "2025-10-18T14:03:51Z",
      "license": "ODbL",
      "wishlist": false,
      "visitedCount": 0,
      "metadata_richness": "base"
    },
    {
      "name": "Shaab Sharm",
      "latitude": 24.788527,
      "longitude": 35.178779,
      "description": "",
      "type": "scuba_diving",
      "source": "OpenStreetMap",
      "verified": true,
      "maxDepth": 40,
      "region": "Red Sea",
      "id": "dive_site_000090",
      "createdAt": "2025-10-18T14:03:51Z",
      "license": "ODbL",
      "wishlist": false,
      "visitedCount": 0,
      "metadata_richness": "base"
    },
    {
      "name": "Shiliniat",
      "latitude": 24.671213,
      "longitude": 35.133154,
      "description": "",
      "type": "dive_site",
      "source": "OpenStreetMap",
      "verified": true,
      "maxDepth": 40,
      "region": "Red Sea",
      "id": "dive_site_000091",
      "createdAt": "2025-10-18T14:03:51Z",
      "license": "ODbL",
      "wishlist": false,
      "visitedCount": 0,
      "metadata_richness": "base"
    },
    {
      "name": "Shaab Nakari",
      "latitude": 24.943921,
      "longitude": 34.984374,
      "description": "",
      "type": "dive_site",
      "source": "OpenStreetMap",
      "verified": true,
      "maxDepth": 40,
      "region": "Red Sea",
      "id": "dive_site_000092",
      "createdAt": "2025-10-18T14:03:51Z",
      "license": "ODbL",
      "wishlist": false,
      "visitedCount": 0,
      "metadata_richness": "base"
    },
    {
      "name": "Gota Abu Ramada",
      "latitude": 27.140101,
      "longitude": 33.953398,
      "description": "",
      "type": "dive_site",
      "source": "OpenStreetMap",
      "verified": true,
      "maxDepth": 40,
      "region": "Red Sea",
      "id": "dive_site_000093",
      "createdAt": "2025-10-18T14:03:51Z",
      "license": "ODbL",
      "wishlist": false,
      "visitedCount": 0,
      "metadata_richness": "base"
    },
    {
      "name": "الإسم العربي ؟",
      "latitude": 26.707004,
      "longitude": 34.100144,
      "description": "",
      "type": "scuba_diving",
      "source": "OpenStreetMap",
      "verified": true,
      "maxDepth": 40,
      "region": "Red Sea",
      "id": "dive_site_000094",
      "createdAt": "2025-10-18T14:03:51Z",
      "license": "ODbL",
      "wishlist": false,
      "visitedCount": 0,
      "metadata_richness": "base"
    },
    {
      "name": "Abu Kafan",
      "latitude": 26.655651,
      "longitude": 34.107649,
      "description": "",
      "type": "scuba_diving",
      "source": "OpenStreetMap",
      "verified": true,
      "maxDepth": 40,
      "region": "Red Sea",
      "id": "dive_site_000095",
      "createdAt": "2025-10-18T14:03:51Z",
      "license": "ODbL",
      "wishlist": false,
      "visitedCount": 0,
      "metadata_richness": "base"
    },
    {
      "name": "Panorama Reef",
      "latitude": 26.752984,
      "longitude": 34.080089,
      "description": "",
      "type": "scuba_diving",
      "source": "OpenStreetMap",
      "verified": true,
      "maxDepth": 40,
      "region": "Red Sea",
      "id": "dive_site_000096",
      "createdAt": "2025-10-18T14:03:51Z",
      "license": "ODbL",
      "wishlist": false,
      "visitedCount": 0,
      "metadata_richness": "base"
    },
    {
      "name": "الإسم العربي ؟",
      "latitude": 26.666422,
      "longitude": 33.96252,
      "description": "",
      "type": "dive_site",
      "source": "OpenStreetMap",
      "verified": true,
      "maxDepth": 40,
      "region": "Red Sea",
      "id": "dive_site_000097",
      "createdAt": "2025-10-18T14:03:51Z",
      "license": "ODbL",
      "wishlist": false,
      "visitedCount": 0,
      "metadata_richness": "base"
    },
    {
      "name": "Abu Dabbab Ithnain",
      "latitude": 25.348193,
      "longitude": 34.776654,
      "description": "",
      "type": "scuba_diving",
      "source": "OpenStreetMap",
      "verified": true,
      "maxDepth": 40,
      "region": "Red Sea",
      "id": "dive_site_000098",
      "createdAt": "2025-10-18T14:03:51Z",
      "license": "ODbL",
      "wishlist": false,
      "visitedCount": 0,
      "metadata_richness": "base"
    },
    {
      "name": "Recif Abu Dabbab 4",
      "latitude": 25.342965,
      "longitude": 34.793754,
      "description": "",
      "type": "dive_site",
      "source": "OpenStreetMap",
      "verified": true,
      "maxDepth": 40,
      "region": "Red Sea",
      "id": "dive_site_000099",
      "createdAt": "2025-10-18T14:03:51Z",
      "license": "ODbL",
      "wishlist": false,
      "visitedCount": 0,
      "metadata_richness": "base"
    },
    {
      "name": "Recif Abu Dabbab 5",
      "latitude": 25.334386,
      "longitude": 34.797415,
      "description": "",
      "type": "dive_site",
      "source": "OpenStreetMap",
      "verified": true,
      "maxDepth": 40,
      "region": "Red Sea",
      "id": "dive_site_000100",
      "createdAt": "2025-10-18T14:03:51Z",
      "license": "ODbL",
      "wishlist": false,
      "visitedCount": 0,
      "metadata_richness": "base"
    },
    {
      "name": "Recif Abu Dabbab 6",
      "latitude": 25.327523,
      "longitude": 34.798547,
      "description": "",
      "type": "dive_site",
      "source": "OpenStreetMap",
      "verified": true,
      "maxDepth": 40,
      "region": "Red Sea",
      "id": "dive_site_000101",
      "createdAt": "2025-10-18T14:03:51Z",
      "license": "ODbL",
      "wishlist": false,
      "visitedCount": 0,
      "metadata_richness": "base"
    },
    {
      "name": "Abu Dabbab Thalata",
      "latitude": 25.346402,
      "longitude": 34.777561,
      "description": "",
      "type": "scuba_diving",
      "source": "OpenStreetMap",
      "verified": true,
      "maxDepth": 40,
      "region": "Red Sea",
      "id": "dive_site_000102",
      "createdAt": "2025-10-18T14:03:51Z",
      "license": "ODbL",
      "wishlist": false,
      "visitedCount": 0,
      "metadata_richness": "base"
    },
    {
      "name": "شعب أبو تنون",
      "latitude": 27.926341,
      "longitude": 34.63947,
      "description": "",
      "type": "dive_site",
      "source": "OpenStreetMap",
      "verified": true,
      "maxDepth": 40,
      "region": "Red Sea",
      "id": "dive_site_000103",
      "createdAt": "2025-10-18T14:03:51Z",
      "license": "ODbL",
      "wishlist": false,
      "visitedCount": 0,
      "metadata_richness": "base"
    },
    {
      "name": "Shaab Rur Umm Gamar",
      "latitude": 27.335179,
      "longitude": 33.916013,
      "description": "",
      "type": "dive_site",
      "source": "OpenStreetMap",
      "verified": true,
      "maxDepth": 40,
      "region": "Red Sea",
      "id": "dive_site_000104",
      "createdAt": "2025-10-18T14:03:51Z",
      "license": "ODbL",
      "wishlist": false,
      "visitedCount": 0,
      "metadata_richness": "base"
    },
    {
      "name": "El Fanadir",
      "latitude": 27.286338,
      "longitude": 33.826412,
      "description": "",
      "type": "dive_site",
      "source": "OpenStreetMap",
      "verified": true,
      "maxDepth": 40,
      "region": "Red Sea",
      "id": "dive_site_000105",
      "createdAt": "2025-10-18T14:03:51Z",
      "license": "ODbL",
      "wishlist": false,
      "visitedCount": 0,
      "metadata_richness": "base"
    },
    {
      "name": "El Fanadir",
      "latitude": 27.282225,
      "longitude": 33.831097,
      "description": "",
      "type": "dive_site",
      "source": "OpenStreetMap",
      "verified": true,
      "maxDepth": 40,
      "region": "Red Sea",
      "id": "dive_site_000106",
      "createdAt": "2025-10-18T14:03:51Z",
      "license": "ODbL",
      "wishlist": false,
      "visitedCount": 0,
      "metadata_richness": "base"
    },
    {
      "name": "Banana Reef",
      "latitude": 27.222118,
      "longitude": 33.951283,
      "description": "name:reference Banana Reef \"Red Sea Partners\"",
      "type": "dive_site",
      "source": "OpenStreetMap",
      "verified": true,
      "maxDepth": 40,
      "region": "Red Sea",
      "id": "dive_site_000107",
      "createdAt": "2025-10-18T14:03:51Z",
      "license": "ODbL",
      "wishlist": false,
      "visitedCount": 0,
      "metadata_richness": "base"
    },
    {
      "name": "Erg Sabina",
      "latitude": 27.216773,
      "longitude": 33.954046,
      "description": "",
      "type": "dive_site",
      "source": "OpenStreetMap",
      "verified": true,
      "maxDepth": 40,
      "region": "Red Sea",
      "id": "dive_site_000108",
      "createdAt": "2025-10-18T14:03:51Z",
      "license": "ODbL",
      "wishlist": false,
      "visitedCount": 0,
      "metadata_richness": "base"
    },
    {
      "name": "جيرة ديدلاس",
      "latitude": 24.934828,
      "longitude": 35.868146,
      "description": "",
      "type": "scuba_diving",
      "source": "OpenStreetMap",
      "verified": true,
      "maxDepth": 40,
      "region": "Red Sea",
      "id": "dive_site_000109",
      "createdAt": "2025-10-18T14:03:51Z",
      "license": "ODbL",
      "wishlist": false,
      "visitedCount": 0,
      "metadata_richness": "base"
    },
    {
      "name": "Shaab Samdai (Dolphin House)",
      "latitude": 24.988584,
      "longitude": 34.999671,
      "description": "",
      "type": "dive_site",
      "source": "OpenStreetMap",
      "verified": true,
      "maxDepth": 40,
      "region": "Red Sea",
      "id": "dive_site_000110",
      "createdAt": "2025-10-18T14:03:51Z",
      "license": "ODbL",
      "wishlist": false,
      "visitedCount": 0,
      "metadata_richness": "base"
    },
    {
      "name": "שונית אלמוגים",
      "latitude": 29.50984,
      "longitude": 34.923535,
      "description": "",
      "type": "dive_site",
      "source": "OpenStreetMap",
      "verified": true,
      "maxDepth": 40,
      "region": "Red Sea",
      "id": "dive_site_000111",
      "createdAt": "2025-10-18T14:03:51Z",
      "license": "ODbL",
      "wishlist": false,
      "visitedCount": 0,
      "metadata_richness": "base"
    },
    {
      "name": "Marsa Umm Gerifat",
      "latitude": 25.62845,
      "longitude": 34.593694,
      "description": "",
      "type": "dive_site",
      "source": "OpenStreetMap",
      "verified": true,
      "maxDepth": 40,
      "region": "Red Sea",
      "id": "dive_site_000112",
      "createdAt": "2025-10-18T14:03:51Z",
      "license": "ODbL",
      "wishlist": false,
      "visitedCount": 0,
      "metadata_richness": "base"
    },
    {
      "name": "Gota Abu Makadi",
      "latitude": 26.993191,
      "longitude": 33.910479,
      "description": "",
      "type": "dive_site",
      "source": "OpenStreetMap",
      "verified": true,
      "maxDepth": 40,
      "region": "Red Sea",
      "id": "dive_site_000113",
      "createdAt": "2025-10-18T14:03:51Z",
      "license": "ODbL",
      "wishlist": false,
      "visitedCount": 0,
      "metadata_richness": "base"
    },
    {
      "name": "Abu Galawa",
      "latitude": 27.32499,
      "longitude": 33.791499,
      "description": "",
      "type": "dive_site",
      "source": "OpenStreetMap",
      "verified": true,
      "maxDepth": 40,
      "region": "Red Sea",
      "id": "dive_site_000114",
      "createdAt": "2025-10-18T14:03:51Z",
      "license": "ODbL",
      "wishlist": false,
      "visitedCount": 0,
      "metadata_richness": "base"
    },
    {
      "name": "Elphinstone Reef",
      "latitude": 25.309304,
      "longitude": 34.860711,
      "description": "",
      "type": "scuba_diving",
      "source": "OpenStreetMap",
      "verified": true,
      "maxDepth": 40,
      "region": "Red Sea",
      "id": "dive_site_000115",
      "createdAt": "2025-10-18T14:03:51Z",
      "license": "ODbL",
      "wishlist": false,
      "visitedCount": 0,
      "metadata_richness": "base"
    },
    {
      "name": "Habili Marsa Alam",
      "latitude": 25.06861,
      "longitude": 34.943604,
      "description": "",
      "type": "dive_site",
      "source": "OpenStreetMap",
      "verified": true,
      "maxDepth": 40,
      "region": "Red Sea",
      "id": "dive_site_000116",
      "createdAt": "2025-10-18T14:03:51Z",
      "license": "ODbL",
      "wishlist": false,
      "visitedCount": 0,
      "metadata_richness": "base"
    },
    {
      "name": "Marsa Umm Gerifat",
      "latitude": 25.568637,
      "longitude": 34.624495,
      "description": "",
      "type": "dive_site",
      "source": "OpenStreetMap",
      "verified": true,
      "maxDepth": 40,
      "region": "Red Sea",
      "id": "dive_site_000117",
      "createdAt": "2025-10-18T14:03:51Z",
      "license": "ODbL",
      "wishlist": false,
      "visitedCount": 0,
      "metadata_richness": "base"
    },
    {
      "name": "طرتين",
      "latitude": 21.382129,
      "longitude": 39.148707,
      "description": "",
      "type": "dive_site",
      "source": "OpenStreetMap",
      "verified": true,
      "maxDepth": 40,
      "region": "Red Sea",
      "id": "dive_site_000118",
      "createdAt": "2025-10-18T14:03:51Z",
      "license": "ODbL",
      "wishlist": false,
      "visitedCount": 0,
      "metadata_richness": "base"
    },
    {
      "name": "شعبة علي",
      "latitude": 21.388807,
      "longitude": 39.144856,
      "description": "",
      "type": "dive_site",
      "source": "OpenStreetMap",
      "verified": true,
      "maxDepth": 40,
      "region": "Red Sea",
      "id": "dive_site_000119",
      "createdAt": "2025-10-18T14:03:51Z",
      "license": "ODbL",
      "wishlist": false,
      "visitedCount": 0,
      "metadata_richness": "base"
    },
    {
      "name": "شعب أبو جندود",
      "latitude": 21.414275,
      "longitude": 39.16899,
      "description": "",
      "type": "dive_site",
      "source": "OpenStreetMap",
      "verified": true,
      "maxDepth": 40,
      "region": "Red Sea",
      "id": "dive_site_000120",
      "createdAt": "2025-10-18T14:03:51Z",
      "license": "ODbL",
      "wishlist": false,
      "visitedCount": 0,
      "metadata_richness": "base"
    },
    {
      "name": "شعب بحار",
      "latitude": 21.414519,
      "longitude": 39.163202,
      "description": "",
      "type": "dive_site",
      "source": "OpenStreetMap",
      "verified": true,
      "maxDepth": 40,
      "region": "Red Sea",
      "id": "dive_site_000121",
      "createdAt": "2025-10-18T14:03:51Z",
      "license": "ODbL",
      "wishlist": false,
      "visitedCount": 0,
      "metadata_richness": "base"
    },
    {
      "name": "Shag Rock",
      "latitude": 27.776453,
      "longitude": 33.881504,
      "description": "",
      "type": "dive_site",
      "source": "OpenStreetMap",
      "verified": true,
      "maxDepth": 40,
      "region": "Red Sea",
      "id": "dive_site_000122",
      "createdAt": "2025-10-18T14:03:51Z",
      "license": "ODbL",
      "wishlist": false,
      "visitedCount": 0,
      "metadata_richness": "base"
    },
    {
      "name": "حشيش",
      "latitude": 16.37259,
      "longitude": 42.419215,
      "description": "",
      "type": "dive_site",
      "source": "OpenStreetMap",
      "verified": true,
      "maxDepth": 40,
      "region": "Red Sea",
      "id": "dive_site_000123",
      "createdAt": "2025-10-18T14:03:51Z",
      "license": "ODbL",
      "wishlist": false,
      "visitedCount": 0,
      "metadata_richness": "base"
    },
    {
      "name": "Shaab Malahi",
      "latitude": 24.197899,
      "longitude": 35.66017,
      "description": "",
      "type": "dive_site",
      "source": "OpenStreetMap",
      "verified": true,
      "maxDepth": 40,
      "region": "Red Sea",
      "id": "dive_site_000124",
      "createdAt": "2025-10-18T14:03:51Z",
      "license": "ODbL",
      "wishlist": false,
      "visitedCount": 0,
      "metadata_richness": "base"
    },
    {
      "name": "Small Gota Sataya",
      "latitude": 24.199223,
      "longitude": 35.651694,
      "description": "",
      "type": "dive_site",
      "source": "OpenStreetMap",
      "verified": true,
      "maxDepth": 40,
      "region": "Red Sea",
      "id": "dive_site_000125",
      "createdAt": "2025-10-18T14:03:51Z",
      "license": "ODbL",
      "wishlist": false,
      "visitedCount": 0,
      "metadata_richness": "base"
    },
    {
      "name": "Big Gota Sataya",
      "latitude": 24.18695,
      "longitude": 35.652571,
      "description": "",
      "type": "dive_site",
      "source": "OpenStreetMap",
      "verified": true,
      "maxDepth": 40,
      "region": "Red Sea",
      "id": "dive_site_000126",
      "createdAt": "2025-10-18T14:03:51Z",
      "license": "ODbL",
      "wishlist": false,
      "visitedCount": 0,
      "metadata_richness": "base"
    },
    {
      "name": "Sataya",
      "latitude": 24.165684,
      "longitude": 35.694205,
      "description": "",
      "type": "dive_site",
      "source": "OpenStreetMap",
      "verified": true,
      "maxDepth": 40,
      "region": "Red Sea",
      "id": "dive_site_000127",
      "createdAt": "2025-10-18T14:03:51Z",
      "license": "ODbL",
      "wishlist": false,
      "visitedCount": 0,
      "metadata_richness": "base"
    },
    {
      "name": "Sanganeb Atoll",
      "latitude": 19.750835,
      "longitude": 37.445596,
      "description": "",
      "type": "dive_site",
      "source": "OpenStreetMap",
      "verified": true,
      "maxDepth": 40,
      "region": "Red Sea",
      "id": "dive_site_000128",
      "createdAt": "2025-10-18T14:03:51Z",
      "license": "ODbL",
      "wishlist": false,
      "visitedCount": 0,
      "metadata_richness": "base"
    },
    {
      "name": "Fandera Hemera",
      "latitude": 23.386447,
      "longitude": 35.756008,
      "description": "",
      "type": "scuba_diving",
      "source": "OpenStreetMap",
      "verified": true,
      "maxDepth": 40,
      "region": "Red Sea",
      "id": "dive_site_000129",
      "createdAt": "2025-10-18T14:03:51Z",
      "license": "ODbL",
      "wishlist": false,
      "visitedCount": 0,
      "metadata_richness": "base"
    },
    {
      "name": "شعب الجرم والدارة",
      "latitude": 16.553687,
      "longitude": 41.681957,
      "description": "",
      "type": "dive_site",
      "source": "OpenStreetMap",
      "verified": true,
      "maxDepth": 40,
      "region": "Red Sea",
      "id": "dive_site_000130",
      "createdAt": "2025-10-18T14:03:51Z",
      "license": "ODbL",
      "wishlist": false,
      "visitedCount": 0,
      "metadata_richness": "base"
    },
    {
      "name": "شعب مجلجلة",
      "latitude": 16.713316,
      "longitude": 42.686648,
      "description": "",
      "type": "dive_site",
      "source": "OpenStreetMap",
      "verified": true,
      "maxDepth": 40,
      "region": "Red Sea",
      "id": "dive_site_000131",
      "createdAt": "2025-10-18T14:03:51Z",
      "license": "ODbL",
      "wishlist": false,
      "visitedCount": 0,
      "metadata_richness": "base"
    },
    {
      "name": "شعب الجلجلة",
      "latitude": 16.758523,
      "longitude": 42.656779,
      "description": "",
      "type": "dive_site",
      "source": "OpenStreetMap",
      "verified": true,
      "maxDepth": 40,
      "region": "Red Sea",
      "id": "dive_site_000132",
      "createdAt": "2025-10-18T14:03:51Z",
      "license": "ODbL",
      "wishlist": false,
      "visitedCount": 0,
      "metadata_richness": "base"
    },
    {
      "name": "המערות",
      "latitude": 29.497408,
      "longitude": 34.912314,
      "description": "",
      "type": "dive_site",
      "source": "OpenStreetMap",
      "verified": true,
      "maxDepth": 40,
      "region": "Red Sea",
      "id": "dive_site_000133",
      "createdAt": "2025-10-18T14:03:51Z",
      "license": "ODbL",
      "wishlist": false,
      "visitedCount": 0,
      "metadata_richness": "base"
    },
    {
      "name": "St John's Small Gota",
      "latitude": 23.429574,
      "longitude": 35.90332,
      "description": "",
      "type": "scuba_diving",
      "source": "OpenStreetMap",
      "verified": true,
      "maxDepth": 40,
      "region": "Red Sea",
      "id": "dive_site_000134",
      "createdAt": "2025-10-18T14:03:51Z",
      "license": "ODbL",
      "wishlist": false,
      "visitedCount": 0,
      "metadata_richness": "base"
    },
    {
      "name": "Habili Ali",
      "latitude": 23.417514,
      "longitude": 35.98722,
      "description": "",
      "type": "scuba_diving",
      "source": "OpenStreetMap",
      "verified": true,
      "maxDepth": 40,
      "region": "Red Sea",
      "id": "dive_site_000135",
      "createdAt": "2025-10-18T14:03:51Z",
      "license": "ODbL",
      "wishlist": false,
      "visitedCount": 0,
      "metadata_richness": "base"
    },
    {
      "name": "St John's Gota Kebir",
      "latitude": 23.414698,
      "longitude": 35.930614,
      "description": "",
      "type": "scuba_diving",
      "source": "OpenStreetMap",
      "verified": true,
      "maxDepth": 40,
      "region": "Red Sea",
      "id": "dive_site_000136",
      "createdAt": "2025-10-18T14:03:51Z",
      "license": "ODbL",
      "wishlist": false,
      "visitedCount": 0,
      "metadata_richness": "base"
    },
    {
      "name": "Horseshoe Reef",
      "latitude": 23.802898,
      "longitude": 35.797845,
      "description": "",
      "type": "dive_site",
      "source": "OpenStreetMap",
      "verified": true,
      "maxDepth": 40,
      "region": "Red Sea",
      "id": "dive_site_000137",
      "createdAt": "2025-10-18T14:03:51Z",
      "license": "ODbL",
      "wishlist": false,
      "visitedCount": 0,
      "metadata_richness": "base"
    },
    {
      "name": "Gotta Hemera",
      "latitude": 23.41205,
      "longitude": 35.702948,
      "description": "",
      "type": "scuba_diving",
      "source": "OpenStreetMap",
      "verified": true,
      "maxDepth": 40,
      "region": "Red Sea",
      "id": "dive_site_000138",
      "createdAt": "2025-10-18T14:03:51Z",
      "license": "ODbL",
      "wishlist": false,
      "visitedCount": 0,
      "metadata_richness": "base"
    },
    {
      "name": "Shaab Maksour",
      "latitude": 24.243668,
      "longitude": 35.650152,
      "description": "",
      "type": "dive_site",
      "source": "OpenStreetMap",
      "verified": true,
      "maxDepth": 40,
      "region": "Red Sea",
      "id": "dive_site_000139",
      "createdAt": "2025-10-18T14:03:51Z",
      "license": "ODbL",
      "wishlist": false,
      "visitedCount": 0,
      "metadata_richness": "base"
    },
    {
      "name": "Abu Dabbab Wahid",
      "latitude": 25.347597,
      "longitude": 34.772328,
      "description": "",
      "type": "scuba_diving",
      "source": "OpenStreetMap",
      "verified": true,
      "maxDepth": 40,
      "region": "Red Sea",
      "id": "dive_site_000140",
      "createdAt": "2025-10-18T14:03:51Z",
      "license": "ODbL",
      "wishlist": false,
      "visitedCount": 0,
      "metadata_richness": "base"
    },
    {
      "name": "Shabrour",
      "latitude": 24.223748,
      "longitude": 35.444547,
      "description": "",
      "type": "dive_site",
      "source": "OpenStreetMap",
      "verified": true,
      "maxDepth": 40,
      "region": "Red Sea",
      "id": "dive_site_000141",
      "createdAt": "2025-10-18T14:03:51Z",
      "license": "ODbL",
      "wishlist": false,
      "visitedCount": 0,
      "metadata_richness": "base"
    },
    {
      "name": "Torfa",
      "latitude": 24.221034,
      "longitude": 35.425504,
      "description": "",
      "type": "dive_site",
      "source": "OpenStreetMap",
      "verified": true,
      "maxDepth": 40,
      "region": "Red Sea",
      "id": "dive_site_000142",
      "createdAt": "2025-10-18T14:03:51Z",
      "license": "ODbL",
      "wishlist": false,
      "visitedCount": 0,
      "metadata_richness": "base"
    },
    {
      "name": "Safaga Soraya",
      "latitude": 26.774009,
      "longitude": 33.99241,
      "description": "",
      "type": "scuba_diving",
      "source": "OpenStreetMap",
      "verified": true,
      "maxDepth": 40,
      "region": "Red Sea",
      "id": "dive_site_000143",
      "createdAt": "2025-10-18T14:03:51Z",
      "license": "ODbL",
      "wishlist": false,
      "visitedCount": 0,
      "metadata_richness": "base"
    },
    {
      "name": "Shaab Sheer Soraya",
      "latitude": 26.643482,
      "longitude": 34.049624,
      "description": "",
      "type": "scuba_diving",
      "source": "OpenStreetMap",
      "verified": true,
      "maxDepth": 40,
      "region": "Red Sea",
      "id": "dive_site_000144",
      "createdAt": "2025-10-18T14:03:51Z",
      "license": "ODbL",
      "wishlist": false,
      "visitedCount": 0,
      "metadata_richness": "base"
    },
    {
      "name": "Shaab Hamdallah",
      "latitude": 26.630022,
      "longitude": 34.061231,
      "description": "",
      "type": "scuba_diving",
      "source": "OpenStreetMap",
      "verified": true,
      "maxDepth": 40,
      "region": "Red Sea",
      "id": "dive_site_000145",
      "createdAt": "2025-10-18T14:03:51Z",
      "license": "ODbL",
      "wishlist": false,
      "visitedCount": 0,
      "metadata_richness": "base"
    },
    {
      "name": "Mushroom Forest",
      "latitude": 12.301811,
      "longitude": -69.154336,
      "description": "",
      "type": "scuba_diving",
      "source": "OpenStreetMap",
      "verified": true,
      "maxDepth": 40,
      "region": "Caribbean",
      "id": "dive_site_000146",
      "createdAt": "2025-10-18T14:03:51Z",
      "license": "ODbL",
      "wishlist": false,
      "visitedCount": 0,
      "metadata_richness": "base"
    },
    {
      "name": "Playa Kalki",
      "latitude": 12.373995,
      "longitude": -69.158574,
      "description": "",
      "type": "scuba_diving",
      "source": "OpenStreetMap",
      "verified": true,
      "maxDepth": 40,
      "region": "Caribbean",
      "id": "dive_site_000147",
      "createdAt": "2025-10-18T14:03:51Z",
      "license": "ODbL",
      "wishlist": false,
      "visitedCount": 0,
      "metadata_richness": "base"
    },
    {
      "name": "Calabas Reef",
      "latitude": 12.144453,
      "longitude": -68.276667,
      "description": "",
      "type": "scuba_diving",
      "source": "OpenStreetMap",
      "verified": true,
      "maxDepth": 40,
      "region": "Caribbean",
      "id": "dive_site_000148",
      "createdAt": "2025-10-18T14:03:51Z",
      "license": "ODbL",
      "wishlist": false,
      "visitedCount": 0,
      "metadata_richness": "base"
    },
    {
      "name": "Severn Stars Reef",
      "latitude": 18.268334,
      "longitude": -63.002452,
      "description": "",
      "type": "dive_site",
      "source": "OpenStreetMap",
      "verified": true,
      "maxDepth": 40,
      "region": "Caribbean",
      "id": "dive_site_000149",
      "createdAt": "2025-10-18T14:03:51Z",
      "license": "ODbL",
      "wishlist": false,
      "visitedCount": 0,
      "metadata_richness": "base"
    },
    {
      "name": "Bajo Los Colorados",
      "latitude": 23.216719,
      "longitude": -81.150018,
      "description": "",
      "type": "dive_site",
      "source": "OpenStreetMap",
      "verified": true,
      "maxDepth": 40,
      "region": "Caribbean",
      "id": "dive_site_000150",
      "createdAt": "2025-10-18T14:03:51Z",
      "license": "ODbL",
      "wishlist": false,
      "visitedCount": 0,
      "metadata_richness": "base"
    },
    {
      "name": "Bajo del Francés",
      "latitude": 23.216897,
      "longitude": -81.166608,
      "description": "",
      "type": "dive_site",
      "source": "OpenStreetMap",
      "verified": true,
      "maxDepth": 40,
      "region": "Caribbean",
      "id": "dive_site_000151",
      "createdAt": "2025-10-18T14:03:51Z",
      "license": "ODbL",
      "wishlist": false,
      "visitedCount": 0,
      "metadata_richness": "base"
    },
    {
      "name": "tan",
      "latitude": 11.267716,
      "longitude": -74.190512,
      "description": "",
      "type": "diving",
      "source": "OpenStreetMap",
      "verified": true,
      "maxDepth": 40,
      "region": "Caribbean",
      "id": "dive_site_000152",
      "createdAt": "2025-10-18T14:03:51Z",
      "license": "ODbL",
      "wishlist": false,
      "visitedCount": 0,
      "metadata_richness": "base"
    },
    {
      "name": "Aquarius",
      "latitude": 11.267734,
      "longitude": -74.190462,
      "description": "",
      "type": "scuba_diving",
      "source": "OpenStreetMap",
      "verified": true,
      "maxDepth": 40,
      "region": "Caribbean",
      "id": "dive_site_000153",
      "createdAt": "2025-10-18T14:03:51Z",
      "license": "ODbL",
      "wishlist": false,
      "visitedCount": 0,
      "metadata_richness": "base"
    },
    {
      "name": "Bowden Reef",
      "latitude": 17.867397,
      "longitude": -76.317904,
      "description": "",
      "type": "dive_site",
      "source": "OpenStreetMap",
      "verified": true,
      "maxDepth": 40,
      "region": "Caribbean",
      "id": "dive_site_000154",
      "createdAt": "2025-10-18T14:03:51Z",
      "license": "ODbL",
      "wishlist": false,
      "visitedCount": 0,
      "metadata_richness": "base"
    },
    {
      "name": "Coral Gardens Snorkling Trail",
      "latitude": 21.786317,
      "longitude": -72.204888,
      "description": "",
      "type": "dive_site",
      "source": "OpenStreetMap",
      "verified": true,
      "maxDepth": 40,
      "region": "Caribbean",
      "id": "dive_site_000155",
      "createdAt": "2025-10-18T14:03:51Z",
      "license": "ODbL",
      "wishlist": false,
      "visitedCount": 0,
      "metadata_richness": "base"
    },
    {
      "name": "Smiths Reef",
      "latitude": 21.789413,
      "longitude": -72.22606,
      "description": "",
      "type": "dive_site",
      "source": "OpenStreetMap",
      "verified": true,
      "maxDepth": 40,
      "region": "Caribbean",
      "id": "dive_site_000156",
      "createdAt": "2025-10-18T14:03:51Z",
      "license": "ODbL",
      "wishlist": false,
      "visitedCount": 0,
      "metadata_richness": "base"
    },
    {
      "name": "Mill Reef",
      "latitude": 17.054737,
      "longitude": -61.658967,
      "description": "",
      "type": "dive_site",
      "source": "OpenStreetMap",
      "verified": true,
      "maxDepth": 40,
      "region": "Caribbean",
      "id": "dive_site_000157",
      "createdAt": "2025-10-18T14:03:51Z",
      "license": "ODbL",
      "wishlist": false,
      "visitedCount": 0,
      "metadata_richness": "base"
    },
    {
      "name": "Captain Hook’s Looe Key Reef Adventures",
      "latitude": 24.670345,
      "longitude": -81.368612,
      "description": "",
      "type": "diving",
      "source": "OpenStreetMap",
      "verified": true,
      "maxDepth": 40,
      "region": "Caribbean",
      "id": "dive_site_000158",
      "createdAt": "2025-10-18T14:03:51Z",
      "license": "ODbL",
      "wishlist": false,
      "visitedCount": 0,
      "metadata_richness": "base"
    },
    {
      "name": "Central Dive Curacao",
      "latitude": 12.146273,
      "longitude": -68.973202,
      "description": "",
      "type": "diving",
      "source": "OpenStreetMap",
      "verified": true,
      "maxDepth": 40,
      "region": "Caribbean",
      "id": "dive_site_000159",
      "createdAt": "2025-10-18T14:03:51Z",
      "license": "ODbL",
      "wishlist": false,
      "visitedCount": 0,
      "metadata_richness": "base"
    },
    {
      "name": "Punto de Buceo - Caleta del Toro",
      "latitude": 22.041438,
      "longitude": -80.93279,
      "description": "",
      "type": "diving",
      "source": "OpenStreetMap",
      "verified": true,
      "maxDepth": 40,
      "region": "Caribbean",
      "id": "dive_site_000160",
      "createdAt": "2025-10-18T14:03:51Z",
      "license": "ODbL",
      "wishlist": false,
      "visitedCount": 0,
      "metadata_richness": "base"
    },
    {
      "name": "Formaciones coralinas",
      "latitude": 11.326261,
      "longitude": -74.077765,
      "description": "",
      "type": "dive_site",
      "source": "OpenStreetMap",
      "verified": true,
      "maxDepth": 40,
      "region": "Caribbean",
      "id": "dive_site_000161",
      "createdAt": "2025-10-18T14:03:51Z",
      "license": "ODbL",
      "wishlist": false,
      "visitedCount": 0,
      "metadata_richness": "base"
    },
    {
      "name": "Arrecife Playa Santa Lucía",
      "latitude": 21.611674,
      "longitude": -77.064731,
      "description": "",
      "type": "dive_site",
      "source": "OpenStreetMap",
      "verified": true,
      "maxDepth": 40,
      "region": "Caribbean",
      "id": "dive_site_000162",
      "createdAt": "2025-10-18T14:03:51Z",
      "license": "ODbL",
      "wishlist": false,
      "visitedCount": 0,
      "metadata_richness": "base"
    },
    {
      "name": "Dead Man's Bones",
      "latitude": 17.865881,
      "longitude": -76.33223,
      "description": "",
      "type": "dive_site",
      "source": "OpenStreetMap",
      "verified": true,
      "maxDepth": 40,
      "region": "Caribbean",
      "id": "dive_site_000163",
      "createdAt": "2025-10-18T14:03:51Z",
      "license": "ODbL",
      "wishlist": false,
      "visitedCount": 0,
      "metadata_richness": "base"
    },
    {
      "name": "Bush Cay",
      "latitude": 18.492237,
      "longitude": -77.641529,
      "description": "",
      "type": "dive_site",
      "source": "OpenStreetMap",
      "verified": true,
      "maxDepth": 40,
      "region": "Caribbean",
      "id": "dive_site_000164",
      "createdAt": "2025-10-18T14:03:51Z",
      "license": "ODbL",
      "wishlist": false,
      "visitedCount": 0,
      "metadata_richness": "base"
    },
    {
      "name": "Hen and Chickens reef",
      "latitude": 24.935307,
      "longitude": -80.548574,
      "description": "",
      "type": "dive_site",
      "source": "OpenStreetMap",
      "verified": true,
      "maxDepth": 40,
      "region": "Caribbean",
      "id": "dive_site_000165",
      "createdAt": "2025-10-18T14:03:51Z",
      "license": "ODbL",
      "wishlist": false,
      "visitedCount": 0,
      "metadata_richness": "base"
    },
    {
      "name": "Egg Rock",
      "latitude": 13.05302,
      "longitude": -83.344745,
      "description": "",
      "type": "dive_site",
      "source": "OpenStreetMap",
      "verified": true,
      "maxDepth": 40,
      "region": "Caribbean",
      "id": "dive_site_000166",
      "createdAt": "2025-10-18T14:03:51Z",
      "license": "ODbL",
      "wishlist": false,
      "visitedCount": 0,
      "metadata_richness": "base"
    },
    {
      "name": "Julia Tuttle Causeway Artifical Reef",
      "latitude": 25.811326,
      "longitude": -80.171925,
      "description": "",
      "type": "dive_site",
      "source": "OpenStreetMap",
      "verified": true,
      "maxDepth": 40,
      "region": "Caribbean",
      "id": "dive_site_000167",
      "createdAt": "2025-10-18T14:03:51Z",
      "license": "ODbL",
      "wishlist": false,
      "visitedCount": 0,
      "metadata_richness": "base"
    },
    {
      "name": "Bushukura Reefs",
      "latitude": 14.443483,
      "longitude": -83.003947,
      "description": "",
      "type": "dive_site",
      "source": "OpenStreetMap",
      "verified": true,
      "maxDepth": 40,
      "region": "Caribbean",
      "id": "dive_site_000168",
      "createdAt": "2025-10-18T14:03:51Z",
      "license": "ODbL",
      "wishlist": false,
      "visitedCount": 0,
      "metadata_richness": "base"
    },
    {
      "name": "Flag Rock",
      "latitude": 14.412556,
      "longitude": -82.826395,
      "description": "",
      "type": "dive_site",
      "source": "OpenStreetMap",
      "verified": true,
      "maxDepth": 40,
      "region": "Caribbean",
      "id": "dive_site_000169",
      "createdAt": "2025-10-18T14:03:51Z",
      "license": "ODbL",
      "wishlist": false,
      "visitedCount": 0,
      "metadata_richness": "base"
    },
    {
      "name": "Uanuatkira Rock",
      "latitude": 14.421278,
      "longitude": -82.874459,
      "description": "",
      "type": "dive_site",
      "source": "OpenStreetMap",
      "verified": true,
      "maxDepth": 40,
      "region": "Caribbean",
      "id": "dive_site_000170",
      "createdAt": "2025-10-18T14:03:51Z",
      "license": "ODbL",
      "wishlist": false,
      "visitedCount": 0,
      "metadata_richness": "base"
    },
    {
      "name": "Shackle Reef",
      "latitude": 14.520352,
      "longitude": -82.84202,
      "description": "",
      "type": "dive_site",
      "source": "OpenStreetMap",
      "verified": true,
      "maxDepth": 40,
      "region": "Caribbean",
      "id": "dive_site_000171",
      "createdAt": "2025-10-18T14:03:51Z",
      "license": "ODbL",
      "wishlist": false,
      "visitedCount": 0,
      "metadata_richness": "base"
    },
    {
      "name": "Waham Reef",
      "latitude": 14.505975,
      "longitude": -82.880049,
      "description": "",
      "type": "dive_site",
      "source": "OpenStreetMap",
      "verified": true,
      "maxDepth": 40,
      "region": "Caribbean",
      "id": "dive_site_000172",
      "createdAt": "2025-10-18T14:03:51Z",
      "license": "ODbL",
      "wishlist": false,
      "visitedCount": 0,
      "metadata_richness": "base"
    },
    {
      "name": "South Ham Cay",
      "latitude": 14.582136,
      "longitude": -82.985768,
      "description": "",
      "type": "dive_site",
      "source": "OpenStreetMap",
      "verified": true,
      "maxDepth": 40,
      "region": "Caribbean",
      "id": "dive_site_000173",
      "createdAt": "2025-10-18T14:03:51Z",
      "license": "ODbL",
      "wishlist": false,
      "visitedCount": 0,
      "metadata_richness": "base"
    },
    {
      "name": "Mason Rocks",
      "latitude": 14.147042,
      "longitude": -82.782744,
      "description": "",
      "type": "dive_site",
      "source": "OpenStreetMap",
      "verified": true,
      "maxDepth": 40,
      "region": "Caribbean",
      "id": "dive_site_000174",
      "createdAt": "2025-10-18T14:03:51Z",
      "license": "ODbL",
      "wishlist": false,
      "visitedCount": 0,
      "metadata_richness": "base"
    },
    {
      "name": "The Witties",
      "latitude": 14.166527,
      "longitude": -82.740902,
      "description": "",
      "type": "dive_site",
      "source": "OpenStreetMap",
      "verified": true,
      "maxDepth": 40,
      "region": "Caribbean",
      "id": "dive_site_000175",
      "createdAt": "2025-10-18T14:03:51Z",
      "license": "ODbL",
      "wishlist": false,
      "visitedCount": 0,
      "metadata_richness": "base"
    },
    {
      "name": "Witties Reef",
      "latitude": 14.186655,
      "longitude": -82.693352,
      "description": "",
      "type": "dive_site",
      "source": "OpenStreetMap",
      "verified": true,
      "maxDepth": 40,
      "region": "Caribbean",
      "id": "dive_site_000176",
      "createdAt": "2025-10-18T14:03:51Z",
      "license": "ODbL",
      "wishlist": false,
      "visitedCount": 0,
      "metadata_richness": "base"
    },
    {
      "name": "Sam-Sam Reef",
      "latitude": 14.146033,
      "longitude": -82.726235,
      "description": "",
      "type": "dive_site",
      "source": "OpenStreetMap",
      "verified": true,
      "maxDepth": 40,
      "region": "Caribbean",
      "id": "dive_site_000177",
      "createdAt": "2025-10-18T14:03:51Z",
      "license": "ODbL",
      "wishlist": false,
      "visitedCount": 0,
      "metadata_richness": "base"
    },
    {
      "name": "Sea Devil Reef",
      "latitude": 14.120303,
      "longitude": -82.792368,
      "description": "",
      "type": "dive_site",
      "source": "OpenStreetMap",
      "verified": true,
      "maxDepth": 40,
      "region": "Caribbean",
      "id": "dive_site_000178",
      "createdAt": "2025-10-18T14:03:51Z",
      "license": "ODbL",
      "wishlist": false,
      "visitedCount": 0,
      "metadata_richness": "base"
    },
    {
      "name": "Franklin Reef",
      "latitude": 14.098528,
      "longitude": -82.711725,
      "description": "",
      "type": "dive_site",
      "source": "OpenStreetMap",
      "verified": true,
      "maxDepth": 40,
      "region": "Caribbean",
      "id": "dive_site_000179",
      "createdAt": "2025-10-18T14:03:51Z",
      "license": "ODbL",
      "wishlist": false,
      "visitedCount": 0,
      "metadata_richness": "base"
    },
    {
      "name": "Alice-Agnes Rocks",
      "latitude": 14.244158,
      "longitude": -82.997407,
      "description": "",
      "type": "dive_site",
      "source": "OpenStreetMap",
      "verified": true,
      "maxDepth": 40,
      "region": "Caribbean",
      "id": "dive_site_000180",
      "createdAt": "2025-10-18T14:03:51Z",
      "license": "ODbL",
      "wishlist": false,
      "visitedCount": 0,
      "metadata_richness": "base"
    },
    {
      "name": "Arthur Jackson",
      "latitude": 14.172001,
      "longitude": -82.855979,
      "description": "",
      "type": "dive_site",
      "source": "OpenStreetMap",
      "verified": true,
      "maxDepth": 40,
      "region": "Caribbean",
      "id": "dive_site_000181",
      "createdAt": "2025-10-18T14:03:51Z",
      "license": "ODbL",
      "wishlist": false,
      "visitedCount": 0,
      "metadata_richness": "base"
    },
    {
      "name": "John Henderson Rock",
      "latitude": 14.177355,
      "longitude": -82.749689,
      "description": "",
      "type": "dive_site",
      "source": "OpenStreetMap",
      "verified": true,
      "maxDepth": 40,
      "region": "Caribbean",
      "id": "dive_site_000182",
      "createdAt": "2025-10-18T14:03:51Z",
      "license": "ODbL",
      "wishlist": false,
      "visitedCount": 0,
      "metadata_richness": "base"
    },
    {
      "name": "Barnett Shoal",
      "latitude": 14.187117,
      "longitude": -82.589915,
      "description": "",
      "type": "dive_site",
      "source": "OpenStreetMap",
      "verified": true,
      "maxDepth": 40,
      "region": "Caribbean",
      "id": "dive_site_000183",
      "createdAt": "2025-10-18T14:03:51Z",
      "license": "ODbL",
      "wishlist": false,
      "visitedCount": 0,
      "metadata_richness": "base"
    },
    {
      "name": "Rockfish Reef",
      "latitude": 14.328249,
      "longitude": -82.662152,
      "description": "",
      "type": "dive_site",
      "source": "OpenStreetMap",
      "verified": true,
      "maxDepth": 40,
      "region": "Caribbean",
      "id": "dive_site_000184",
      "createdAt": "2025-10-18T14:03:51Z",
      "license": "ODbL",
      "wishlist": false,
      "visitedCount": 0,
      "metadata_richness": "base"
    },
    {
      "name": "Bodden Rocks",
      "latitude": 14.296022,
      "longitude": -82.598938,
      "description": "",
      "type": "dive_site",
      "source": "OpenStreetMap",
      "verified": true,
      "maxDepth": 40,
      "region": "Caribbean",
      "id": "dive_site_000185",
      "createdAt": "2025-10-18T14:03:51Z",
      "license": "ODbL",
      "wishlist": false,
      "visitedCount": 0,
      "metadata_richness": "base"
    },
    {
      "name": "Owen Shoal",
      "latitude": 14.281924,
      "longitude": -82.556859,
      "description": "",
      "type": "dive_site",
      "source": "OpenStreetMap",
      "verified": true,
      "maxDepth": 40,
      "region": "Caribbean",
      "id": "dive_site_000186",
      "createdAt": "2025-10-18T14:03:51Z",
      "license": "ODbL",
      "wishlist": false,
      "visitedCount": 0,
      "metadata_richness": "base"
    },
    {
      "name": "Loggerhead Reef",
      "latitude": 14.231824,
      "longitude": -82.770653,
      "description": "",
      "type": "dive_site",
      "source": "OpenStreetMap",
      "verified": true,
      "maxDepth": 40,
      "region": "Caribbean",
      "id": "dive_site_000187",
      "createdAt": "2025-10-18T14:03:51Z",
      "license": "ODbL",
      "wishlist": false,
      "visitedCount": 0,
      "metadata_richness": "base"
    },
    {
      "name": "Northwest Spot",
      "latitude": 14.205158,
      "longitude": -82.755745,
      "description": "",
      "type": "dive_site",
      "source": "OpenStreetMap",
      "verified": true,
      "maxDepth": 40,
      "region": "Caribbean",
      "id": "dive_site_000188",
      "createdAt": "2025-10-18T14:03:51Z",
      "license": "ODbL",
      "wishlist": false,
      "visitedCount": 0,
      "metadata_richness": "base"
    },
    {
      "name": "Cayman Reef",
      "latitude": 14.191894,
      "longitude": -82.761619,
      "description": "",
      "type": "dive_site",
      "source": "OpenStreetMap",
      "verified": true,
      "maxDepth": 40,
      "region": "Caribbean",
      "id": "dive_site_000189",
      "createdAt": "2025-10-18T14:03:51Z",
      "license": "ODbL",
      "wishlist": false,
      "visitedCount": 0,
      "metadata_richness": "base"
    },
    {
      "name": "Mary Isabella Reef",
      "latitude": 14.181162,
      "longitude": -82.824404,
      "description": "",
      "type": "dive_site",
      "source": "OpenStreetMap",
      "verified": true,
      "maxDepth": 40,
      "region": "Caribbean",
      "id": "dive_site_000190",
      "createdAt": "2025-10-18T14:03:51Z",
      "license": "ODbL",
      "wishlist": false,
      "visitedCount": 0,
      "metadata_richness": "base"
    },
    {
      "name": "Fendleys Reef",
      "latitude": 14.155432,
      "longitude": -82.79685,
      "description": "",
      "type": "dive_site",
      "source": "OpenStreetMap",
      "verified": true,
      "maxDepth": 40,
      "region": "Caribbean",
      "id": "dive_site_000191",
      "createdAt": "2025-10-18T14:03:51Z",
      "license": "ODbL",
      "wishlist": false,
      "visitedCount": 0,
      "metadata_richness": "base"
    },
    {
      "name": "Auiapuni Reef",
      "latitude": 14.519437,
      "longitude": -83.090227,
      "description": "",
      "type": "dive_site",
      "source": "OpenStreetMap",
      "verified": true,
      "maxDepth": 40,
      "region": "Caribbean",
      "id": "dive_site_000192",
      "createdAt": "2025-10-18T14:03:51Z",
      "license": "ODbL",
      "wishlist": false,
      "visitedCount": 0,
      "metadata_richness": "base"
    },
    {
      "name": "Auikera",
      "latitude": 14.502622,
      "longitude": -83.02115,
      "description": "",
      "type": "dive_site",
      "source": "OpenStreetMap",
      "verified": true,
      "maxDepth": 40,
      "region": "Caribbean",
      "id": "dive_site_000193",
      "createdAt": "2025-10-18T14:03:51Z",
      "license": "ODbL",
      "wishlist": false,
      "visitedCount": 0,
      "metadata_richness": "base"
    },
    {
      "name": "Tsiankualaia Rock",
      "latitude": 14.329507,
      "longitude": -83.062885,
      "description": "",
      "type": "dive_site",
      "source": "OpenStreetMap",
      "verified": true,
      "maxDepth": 40,
      "region": "Caribbean",
      "id": "dive_site_000194",
      "createdAt": "2025-10-18T14:03:51Z",
      "license": "ODbL",
      "wishlist": false,
      "visitedCount": 0,
      "metadata_richness": "base"
    },
    {
      "name": "Tingo Reef",
      "latitude": 14.321534,
      "longitude": -83.035827,
      "description": "",
      "type": "dive_site",
      "source": "OpenStreetMap",
      "verified": true,
      "maxDepth": 40,
      "region": "Caribbean",
      "id": "dive_site_000195",
      "createdAt": "2025-10-18T14:03:51Z",
      "license": "ODbL",
      "wishlist": false,
      "visitedCount": 0,
      "metadata_richness": "base"
    },
    {
      "name": "Southwest by South Rocks",
      "latitude": 14.286156,
      "longitude": -82.977794,
      "description": "",
      "type": "dive_site",
      "source": "OpenStreetMap",
      "verified": true,
      "maxDepth": 40,
      "region": "Caribbean",
      "id": "dive_site_000196",
      "createdAt": "2025-10-18T14:03:51Z",
      "license": "ODbL",
      "wishlist": false,
      "visitedCount": 0,
      "metadata_richness": "base"
    },
    {
      "name": "South by East Rocks",
      "latitude": 14.264123,
      "longitude": -82.943398,
      "description": "",
      "type": "dive_site",
      "source": "OpenStreetMap",
      "verified": true,
      "maxDepth": 40,
      "region": "Caribbean",
      "id": "dive_site_000197",
      "createdAt": "2025-10-18T14:03:51Z",
      "license": "ODbL",
      "wishlist": false,
      "visitedCount": 0,
      "metadata_richness": "base"
    },
    {
      "name": "Asmalera Rocks",
      "latitude": 14.34039,
      "longitude": -83.011612,
      "description": "",
      "type": "dive_site",
      "source": "OpenStreetMap",
      "verified": true,
      "maxDepth": 40,
      "region": "Caribbean",
      "id": "dive_site_000198",
      "createdAt": "2025-10-18T14:03:51Z",
      "license": "ODbL",
      "wishlist": false,
      "visitedCount": 0,
      "metadata_richness": "base"
    },
    {
      "name": "Archies Rock",
      "latitude": 14.563756,
      "longitude": -83.202923,
      "description": "",
      "type": "dive_site",
      "source": "OpenStreetMap",
      "verified": true,
      "maxDepth": 40,
      "region": "Caribbean",
      "id": "dive_site_000199",
      "createdAt": "2025-10-18T14:03:51Z",
      "license": "ODbL",
      "wishlist": false,
      "visitedCount": 0,
      "metadata_richness": "base"
    },
    {
      "name": "Uatlatara Rocks",
      "latitude": 14.560817,
      "longitude": -83.196207,
      "description": "",
      "type": "dive_site",
      "source": "OpenStreetMap",
      "verified": true,
      "maxDepth": 40,
      "region": "Caribbean",
      "id": "dive_site_000200",
      "createdAt": "2025-10-18T14:03:51Z",
      "license": "ODbL",
      "wishlist": false,
      "visitedCount": 0,
      "metadata_richness": "base"
    },
    {
      "name": "Sealark Rocks",
      "latitude": 14.367581,
      "longitude": -82.955098,
      "description": "",
      "type": "dive_site",
      "source": "OpenStreetMap",
      "verified": true,
      "maxDepth": 40,
      "region": "Caribbean",
      "id": "dive_site_000201",
      "createdAt": "2025-10-18T14:03:51Z",
      "license": "ODbL",
      "wishlist": false,
      "visitedCount": 0,
      "metadata_richness": "base"
    },
    {
      "name": "French Cay",
      "latitude": 12.464796,
      "longitude": -83.446716,
      "description": "",
      "type": "dive_site",
      "source": "OpenStreetMap",
      "verified": true,
      "maxDepth": 40,
      "region": "Caribbean",
      "id": "dive_site_000202",
      "createdAt": "2025-10-18T14:03:51Z",
      "license": "ODbL",
      "wishlist": false,
      "visitedCount": 0,
      "metadata_richness": "base"
    },
    {
      "name": "Lark Rock",
      "latitude": 12.410257,
      "longitude": -83.43745,
      "description": "",
      "type": "dive_site",
      "source": "OpenStreetMap",
      "verified": true,
      "maxDepth": 40,
      "region": "Caribbean",
      "id": "dive_site_000203",
      "createdAt": "2025-10-18T14:03:51Z",
      "license": "ODbL",
      "wishlist": false,
      "visitedCount": 0,
      "metadata_richness": "base"
    },
    {
      "name": "Mariner Shoal",
      "latitude": 12.399925,
      "longitude": -83.448898,
      "description": "",
      "type": "dive_site",
      "source": "OpenStreetMap",
      "verified": true,
      "maxDepth": 40,
      "region": "Caribbean",
      "id": "dive_site_000204",
      "createdAt": "2025-10-18T14:03:51Z",
      "license": "ODbL",
      "wishlist": false,
      "visitedCount": 0,
      "metadata_richness": "base"
    },
    {
      "name": "La Perle",
      "latitude": 14.841871,
      "longitude": -61.227879,
      "description": "",
      "type": "dive_site",
      "source": "OpenStreetMap",
      "verified": true,
      "maxDepth": 40,
      "region": "Caribbean",
      "id": "dive_site_000205",
      "createdAt": "2025-10-18T14:03:51Z",
      "license": "ODbL",
      "wishlist": false,
      "visitedCount": 0,
      "metadata_richness": "base"
    },
    {
      "name": "Frégate-de-Haut",
      "latitude": 16.191289,
      "longitude": -61.55208,
      "description": "Les îlets à Frégate (Petit Cul-de-Sac Marin) ont disparu (semble-t-il après le passage du cyclone de 1928) et sont désormais des récifs connus sous le nom Frégate de Haut et Frégate de Bas.",
      "type": "dive_site",
      "source": "OpenStreetMap",
      "verified": true,
      "maxDepth": 40,
      "region": "Caribbean",
      "id": "dive_site_000206",
      "createdAt": "2025-10-18T14:03:51Z",
      "license": "ODbL",
      "wishlist": false,
      "visitedCount": 0,
      "metadata_richness": "base"
    },
    {
      "name": "Frégate-de-Bas",
      "latitude": 16.196249,
      "longitude": -61.555942,
      "description": "Les îlets à Frégate (Petit Cul-de-Sac Marin) ont disparu (semble-t-il après le passage du cyclone de 1928) et sont désormais des récifs connus sous le nom Frégate de Haut et Frégate de Bas.",
      "type": "dive_site",
      "source": "OpenStreetMap",
      "verified": true,
      "maxDepth": 40,
      "region": "Caribbean",
      "id": "dive_site_000207",
      "createdAt": "2025-10-18T14:03:51Z",
      "license": "ODbL",
      "wishlist": false,
      "visitedCount": 0,
      "metadata_richness": "base"
    },
    {
      "name": "Runway Wall",
      "latitude": 24.979608,
      "longitude": -77.535187,
      "description": "",
      "type": "dive_site",
      "source": "OpenStreetMap",
      "verified": true,
      "maxDepth": 40,
      "region": "Caribbean",
      "id": "dive_site_000208",
      "createdAt": "2025-10-18T14:03:51Z",
      "license": "ODbL",
      "wishlist": false,
      "visitedCount": 0,
      "metadata_richness": "base"
    },
    {
      "name": "Bond Reef",
      "latitude": 25.008891,
      "longitude": -77.556721,
      "description": "",
      "type": "dive_site",
      "source": "OpenStreetMap",
      "verified": true,
      "maxDepth": 40,
      "region": "Caribbean",
      "id": "dive_site_000209",
      "createdAt": "2025-10-18T14:03:51Z",
      "license": "ODbL",
      "wishlist": false,
      "visitedCount": 0,
      "metadata_richness": "base"
    },
    {
      "name": "Southern Escarpment",
      "latitude": 23.494713,
      "longitude": -79.891868,
      "description": "",
      "type": "dive_site",
      "source": "OpenStreetMap",
      "verified": true,
      "maxDepth": 40,
      "region": "Caribbean",
      "id": "dive_site_000210",
      "createdAt": "2025-10-18T14:03:51Z",
      "license": "ODbL",
      "wishlist": false,
      "visitedCount": 0,
      "metadata_richness": "base"
    },
    {
      "name": "Anchor 8",
      "latitude": 23.49343,
      "longitude": -79.885258,
      "description": "",
      "type": "dive_site",
      "source": "OpenStreetMap",
      "verified": true,
      "maxDepth": 40,
      "region": "Caribbean",
      "id": "dive_site_000211",
      "createdAt": "2025-10-18T14:03:51Z",
      "license": "ODbL",
      "wishlist": false,
      "visitedCount": 0,
      "metadata_richness": "base"
    },
    {
      "name": "Southern Wall",
      "latitude": 23.490945,
      "longitude": -79.878579,
      "description": "",
      "type": "dive_site",
      "source": "OpenStreetMap",
      "verified": true,
      "maxDepth": 40,
      "region": "Caribbean",
      "id": "dive_site_000212",
      "createdAt": "2025-10-18T14:03:51Z",
      "license": "ODbL",
      "wishlist": false,
      "visitedCount": 0,
      "metadata_richness": "base"
    },
    {
      "name": "Southern Escarpment",
      "latitude": 23.483448,
      "longitude": -79.853268,
      "description": "",
      "type": "dive_site",
      "source": "OpenStreetMap",
      "verified": true,
      "maxDepth": 40,
      "region": "Caribbean",
      "id": "dive_site_000213",
      "createdAt": "2025-10-18T14:03:51Z",
      "license": "ODbL",
      "wishlist": false,
      "visitedCount": 0,
      "metadata_richness": "base"
    },
    {
      "name": "Savo Wall",
      "latitude": 23.82164,
      "longitude": -75.128257,
      "description": "",
      "type": "dive_site",
      "source": "OpenStreetMap",
      "verified": true,
      "maxDepth": 40,
      "region": "Caribbean",
      "id": "dive_site_000214",
      "createdAt": "2025-10-18T14:03:51Z",
      "license": "ODbL",
      "wishlist": false,
      "visitedCount": 0,
      "metadata_richness": "base"
    },
    {
      "name": "Caye Fortune",
      "latitude": 16.15124,
      "longitude": -61.563226,
      "description": "",
      "type": "dive_site",
      "source": "OpenStreetMap",
      "verified": true,
      "maxDepth": 40,
      "region": "Caribbean",
      "id": "dive_site_000215",
      "createdAt": "2025-10-18T14:03:51Z",
      "license": "ODbL",
      "wishlist": false,
      "visitedCount": 0,
      "metadata_richness": "base"
    },