{
  "version": "1.0",
  "sites": [
    {"id":"site_yonaguni_monument","name":"Yonaguni Monument","region":"Japan","area":"Yonaguni","country":"Japan","latitude":24.4450,"longitude":122.9330,"averageDepth":20.0,"maxDepth":40.0,"averageTemp":24.0,"averageVisibility":30.0,"difficulty":"Advanced","type":"Reef","description":"Submerged rock formation with dramatic steps and walls","tags":["current","geological"],"wishlist":false,"visitedCount":0},
    {"id":"site_rangiroa_tiputa","name":"Tiputa Pass","region":"French Polynesia","area":"Rangiroa","country":"France","latitude":-14.9730,"longitude":-147.6280,"averageDepth":18.0,"maxDepth":35.0,"averageTemp":27.0,"averageVisibility":40.0,"difficulty":"Advanced","type":"Drift","description":"World-class drift with sharks and dolphins","tags":["drift","sharks","dolphins"],"wishlist":true,"visitedCount":0},
    {"id":"site_kona_manta","name":"Kona Manta Night Dive","region":"Pacific","area":"Kona","country":"USA","latitude":19.6400,"longitude":-155.9950,"averageDepth":12.0,"maxDepth":18.0,"averageTemp":26.0,"averageVisibility":25.0,"difficulty":"Beginner","type":"Reef","description":"Iconic manta night dive with lights attracting plankton","tags":["mantas","night"],"wishlist":false,"visitedCount":0},
    {"id":"site_tubbataha","name":"Tubbataha Reef","region":"Southeast Asia","area":"Sulu Sea","country":"Philippines","latitude":8.8670,"longitude":119.8830,"averageDepth":22.0,"maxDepth":40.0,"averageTemp":28.0,"averageVisibility":30.0,"difficulty":"Advanced","type":"Wall","description":"UNESCO site with pristine walls and pelagics","tags":["wall","pelagics"],"wishlist":true,"visitedCount":0},
    {"id":"site_maldives_maaya","name":"Maaya Thila","region":"Indian Ocean","area":"North Ari Atoll","country":"Maldives","latitude":4.2570,"longitude":72.7900,"averageDepth":18.0,"maxDepth":30.0,"averageTemp":29.0,"averageVisibility":25.0,"difficulty":"Intermediate","type":"Pinnacle","description":"Thila with white tips and macro","tags":["sharks","macro"],"wishlist":false,"visitedCount":0},
    {"id":"site_aliwal_shoal","name":"Aliwal Shoal","region":"Africa","area":"KwaZulu-Natal","country":"South Africa","latitude":-30.2130,"longitude":30.8030,"averageDepth":15.0,"maxDepth":27.0,"averageTemp":22.0,"averageVisibility":20.0,"difficulty":"Intermediate","type":"Reef","description":"Ragged-tooth sharks and reef life","tags":["sharks","reef"],"wishlist":false,"visitedCount":0},
    {"id":"site_spiegel_grove","name":"USS Spiegel Grove","region":"North America","area":"Florida Keys","country":"USA","latitude":25.0730,"longitude":-80.3170,"averageDepth":24.0,"maxDepth":40.0,"averageTemp":26.0,"averageVisibility":20.0,"difficulty":"Advanced","type":"Wreck","description":"Large wreck off Key Largo","tags":["wreck","current"],"wishlist":false,"visitedCount":0},
    {"id":"site_gbr_osprey","name":"Osprey Reef North Horn","region":"Australia","area":"Coral Sea","country":"Australia","latitude":-13.8830,"longitude":146.6330,"averageDepth":20.0,"maxDepth":40.0,"averageTemp":27.0,"averageVisibility":40.0,"difficulty":"Advanced","type":"Wall","description":"Shark action on the point, clear water","tags":["sharks","bluewater"],"wishlist":true,"visitedCount":0},
    {"id":"site_rangali_maldives","name":"Rangali Madivaru","region":"Indian Ocean","area":"South Ari","country":"Maldives","latitude":3.6200,"longitude":72.7180,"averageDepth":16.0,"maxDepth":28.0,"averageTemp":29.0,"averageVisibility":25.0,"difficulty":"Intermediate","type":"Drift","description":"Manta cleaning station in season","tags":["mantas","drift"],"wishlist":false,"visitedCount":0},
    {"id":"site_bahamas_tiger_beach","name":"Tiger Beach","region":"Caribbean","area":"Grand Bahama","country":"Bahamas","latitude":26.9970,"longitude":-79.0640,"averageDepth":12.0,"maxDepth":20.0,"averageTemp":27.0,"averageVisibility":35.0,"difficulty":"Intermediate","type":"Reef","description":"Tiger sharks in clear shallow sand flats","tags":["sharks","photography"],"wishlist":true,"visitedCount":0},
    {"id":"site_canary_el_hierro","name":"La Restinga","region":"Atlantic","area":"El Hierro","country":"Spain","latitude":27.6420,"longitude":-17.9810,"averageDepth":18.0,"maxDepth":40.0,"averageTemp":22.0,"averageVisibility":25.0,"difficulty":"Intermediate","type":"Volcanic","description":"Volcanic seascapes with pelagics","tags":["volcanic","pelagics"],"wishlist":false,"visitedCount":0},
    {"id":"site_scapa_flow","name":"Scapa Flow Wrecks","region":"Europe","area":"Orkney","country":"UK","latitude":58.9500,"longitude":-3.1330,"averageDepth":35.0,"maxDepth":45.0,"averageTemp":10.0,"averageVisibility":10.0,"difficulty":"Advanced","type":"Wreck","description":"Historic WWI German fleet wrecks","tags":["wreck","cold"],"wishlist":false,"visitedCount":0},
    {"id":"site_norway_saltstraumen","name":"Saltstraumen Maelstrom","region":"Europe","area":"Bodø","country":"Norway","latitude":67.2330,"longitude":14.6300,"averageDepth":18.0,"maxDepth":30.0,"averageTemp":8.0,"averageVisibility":10.0,"difficulty":"Advanced","type":"Drift","description":"Strongest tidal current with spectacular life","tags":["current","cold"],"wishlist":false,"visitedCount":0},
    {"id":"site_greece_amorgos","name":"Amorgos Blue Cave","region":"Mediterranean","area":"Amorgos","country":"Greece","latitude":36.8320,"longitude":25.8840,"averageDepth":14.0,"maxDepth":25.0,"averageTemp":22.0,"averageVisibility":30.0,"difficulty":"Beginner","type":"Cave","description":"Blue cavern with stunning light beams","tags":["cave","light"],"wishlist":false,"visitedCount":0},
    {"id":"site_costa_rica_bat_islands","name":"Bat Islands (Isla Murciélago)","region":"Pacific","area":"Guanacaste","country":"Costa Rica","latitude":10.8500,"longitude":-85.8660,"averageDepth":24.0,"maxDepth":35.0,"averageTemp":25.0,"averageVisibility":20.0,"difficulty":"Advanced","type":"Reef","description":"Bull sharks in season, big animals","tags":["sharks","current"],"wishlist":false,"visitedCount":0}
  ],
  "meta": {
    "generatedAt": "2025-10-12T04:05:00Z",
    "totalSites": 15,
    "regions": ["Japan","French Polynesia","Pacific","Southeast Asia","Indian Ocean","Africa","North America","Australia","Caribbean","Atlantic","Europe","Mediterranean"],
    "purpose": "Extended world coverage for cross-region navigation"
  }
}
