{
  "region": "Caribbean & Atlantic",
  "sites": [
    {
      "id": "dive_site_000003",
      "name": "Soufri\u00e8re",
      "latitude": 16.0438,
      "longitude": -61.6634,
      "country": "France",
      "description": "active stratovolcano located in Basse-Terre Island, Guadeloupe, French West Indies",
      "maxDepth": 40,
      "region": "Caribbean & Atlantic",
      "source": "dive_sites",
      "license": "CC0",
      "verified": true,
      "createdAt": "2025-10-18T14:01:07Z"
    },
    {
      "id": "dive_site_000146",
      "name": "Mushroom Forest",
      "latitude": 12.301811,
      "longitude": -69.154336,
      "description": "",
      "maxDepth": 40,
      "region": "Caribbean & Atlantic",
      "source": "OpenStreetMap",
      "license": "ODbL",
      "verified": true,
      "createdAt": "2025-10-18T14:03:51Z"
    },
    {
      "id": "dive_site_000147",
      "name": "Playa Kalki",
      "latitude": 12.373995,
      "longitude": -69.158574,
      "description": "",
      "maxDepth": 40,
      "region": "Caribbean & Atlantic",
      "source": "OpenStreetMap",
      "license": "ODbL",
      "verified": true,
      "createdAt": "2025-10-18T14:03:51Z"
    },
    {
      "id": "dive_site_000148",
      "name": "Calabas Reef",
      "latitude": 12.144453,
      "longitude": -68.276667,
      "description": "",
      "maxDepth": 40,
      "region": "Caribbean & Atlantic",
      "source": "OpenStreetMap",
      "license": "ODbL",
      "verified": true,
      "createdAt": "2025-10-18T14:03:51Z"
    },
    {
      "id": "dive_site_000149",
      "name": "Severn Stars Reef",
      "latitude": 18.268334,
      "longitude": -63.002452,
      "description": "",
      "maxDepth": 40,
      "region": "Caribbean & Atlantic",
      "source": "OpenStreetMap",
      "license": "ODbL",
      "verified": true,
      "createdAt": "2025-10-18T14:03:51Z"
    },
    {
      "id": "dive_site_000150",
      "name": "Bajo Los Colorados",
      "latitude": 23.216719,
      "longitude": -81.150018,
      "description": "",
      "maxDepth": 40,
      "region": "Caribbean & Atlantic",
      "source": "OpenStreetMap",
      "license": "ODbL",
      "verified": true,
      "createdAt": "2025-10-18T14:03:51Z"
    },
    {
      "id": "dive_site_000151",
      "name": "Bajo del Franc\u00e9s",
      "latitude": 23.216897,
      "longitude": -81.166608,
      "description": "",
      "maxDepth": 40,
      "region": "Caribbean & Atlantic",
      "source": "OpenStreetMap",
      "license": "ODbL",
      "verified": true,
      "createdAt": "2025-10-18T14:03:51Z"
    },
    {
      "id": "dive_site_000152",
      "name": "tan",
      "latitude": 11.267716,
      "longitude": -74.190512,
      "description": "",
      "maxDepth": 40,
      "region": "Caribbean & Atlantic",
      "source": "OpenStreetMap",
      "license": "ODbL",
      "verified": true,
      "createdAt": "2025-10-18T14:03:51Z"
    },
    {
      "id": "dive_site_000153",
      "name": "Aquarius",
      "latitude": 11.267734,
      "longitude": -74.190462,
      "description": "",
      "maxDepth": 40,
      "region": "Caribbean & Atlantic",
      "source": "OpenStreetMap",
      "license": "ODbL",
      "verified": true,
      "createdAt": "2025-10-18T14:03:51Z"
    },
    {
      "id": "dive_site_000154",
      "name": "Bowden Reef",
      "latitude": 17.867397,
      "longitude": -76.317904,
      "description": "",
      "maxDepth": 40,
      "region": "Caribbean & Atlantic",
      "source": "OpenStreetMap",
      "license": "ODbL",
      "verified": true,
      "createdAt": "2025-10-18T14:03:51Z"
    },
    {
      "id": "dive_site_000155",
      "name": "Coral Gardens Snorkling Trail",
      "latitude": 21.786317,
      "longitude": -72.204888,
      "description": "",
      "maxDepth": 40,
      "region": "Caribbean & Atlantic",
      "source": "OpenStreetMap",
      "license": "ODbL",
      "verified": true,
      "createdAt": "2025-10-18T14:03:51Z"
    },
    {
      "id": "dive_site_000156",
      "name": "Smiths Reef",
      "latitude": 21.789413,
      "longitude": -72.22606,
      "description": "",
      "maxDepth": 40,
      "region": "Caribbean & Atlantic",
      "source": "OpenStreetMap",
      "license": "ODbL",
      "verified": true,
      "createdAt": "2025-10-18T14:03:51Z"
    },
    {
      "id": "dive_site_000157",
      "name": "Mill Reef",
      "latitude": 17.054737,
      "longitude": -61.658967,
      "description": "",
      "maxDepth": 40,
      "region": "Caribbean & Atlantic",
      "source": "OpenStreetMap",
      "license": "ODbL",
      "verified": true,
      "createdAt": "2025-10-18T14:03:51Z"
    },
    {
      "id": "dive_site_000158",
      "name": "Captain Hook\u2019s Looe Key Reef Adventures",
      "latitude": 24.670345,
      "longitude": -81.368612,
      "description": "",
      "maxDepth": 40,
      "region": "Caribbean & Atlantic",
      "source": "OpenStreetMap",
      "license": "ODbL",
      "verified": true,
      "createdAt": "2025-10-18T14:03:51Z"
    },
    {
      "id": "dive_site_000159",
      "name": "Central Dive Curacao",
      "latitude": 12.146273,
      "longitude": -68.973202,
      "description": "",
      "maxDepth": 40,
      "region": "Caribbean & Atlantic",
      "source": "OpenStreetMap",
      "license": "ODbL",
      "verified": true,
      "createdAt": "2025-10-18T14:03:51Z"
    },
    {
      "id": "dive_site_000160",
      "name": "Punto de Buceo - Caleta del Toro",
      "latitude": 22.041438,
      "longitude": -80.93279,
      "description": "",
      "maxDepth": 40,
      "region": "Caribbean & Atlantic",
      "source": "OpenStreetMap",
      "license": "ODbL",
      "verified": true,
      "createdAt": "2025-10-18T14:03:51Z"
    },
    {
      "id": "dive_site_000161",
      "name": "Formaciones coralinas",
      "latitude": 11.326261,
      "longitude": -74.077765,
      "description": "",
      "maxDepth": 40,
      "region": "Caribbean & Atlantic",
      "source": "OpenStreetMap",
      "license": "ODbL",
      "verified": true,
      "createdAt": "2025-10-18T14:03:51Z"
    },
    {
      "id": "dive_site_000162",
      "name": "Arrecife Playa Santa Luc\u00eda",
      "latitude": 21.611674,
      "longitude": -77.064731,
      "description": "",
      "maxDepth": 40,
      "region": "Caribbean & Atlantic",
      "source": "OpenStreetMap",
      "license": "ODbL",
      "verified": true,
      "createdAt": "2025-10-18T14:03:51Z"
    },
    {
      "id": "dive_site_000163",
      "name": "Dead Man's Bones",
      "latitude": 17.865881,
      "longitude": -76.33223,
      "description": "",
      "maxDepth": 40,
      "region": "Caribbean & Atlantic",
      "source": "OpenStreetMap",
      "license": "ODbL",
      "verified": true,
      "createdAt": "2025-10-18T14:03:51Z"
    },
    {
      "id": "dive_site_000164",
      "name": "Bush Cay",
      "latitude": 18.492237,
      "longitude": -77.641529,
      "description": "",
      "maxDepth": 40,
      "region": "Caribbean & Atlantic",
      "source": "OpenStreetMap",
      "license": "ODbL",
      "verified": true,
      "createdAt": "2025-10-18T14:03:51Z"
    },
    {
      "id": "dive_site_000165",
      "name": "Hen and Chickens reef",
      "latitude": 24.935307,
      "longitude": -80.548574,
      "description": "",
      "maxDepth": 40,
      "region": "Caribbean & Atlantic",
      "source": "OpenStreetMap",
      "license": "ODbL",
      "verified": true,
      "createdAt": "2025-10-18T14:03:51Z"
    },
    {
      "id": "dive_site_000166",
      "name": "Egg Rock",
      "latitude": 13.05302,
      "longitude": -83.344745,
      "description": "",
      "maxDepth": 40,
      "region": "Caribbean & Atlantic",
      "source": "OpenStreetMap",
      "license": "ODbL",
      "verified": true,
      "createdAt": "2025-10-18T14:03:51Z"
    },
    {
      "id": "dive_site_000167",
      "name": "Julia Tuttle Causeway Artifical Reef",
      "latitude": 25.811326,
      "longitude": -80.171925,
      "description": "",
      "maxDepth": 40,
      "region": "Caribbean & Atlantic",
      "source": "OpenStreetMap",
      "license": "ODbL",
      "verified": true,
      "createdAt": "2025-10-18T14:03:51Z"
    },
    {
      "id": "dive_site_000168",
      "name": "Bushukura Reefs",
      "latitude": 14.443483,
      "longitude": -83.003947,
      "description": "",
      "maxDepth": 40,
      "region": "Caribbean & Atlantic",
      "source": "OpenStreetMap",
      "license": "ODbL",
      "verified": true,
      "createdAt": "2025-10-18T14:03:51Z"
    },
    {
      "id": "dive_site_000169",
      "name": "Flag Rock",
      "latitude": 14.412556,
      "longitude": -82.826395,
      "description": "",
      "maxDepth": 40,
      "region": "Caribbean & Atlantic",
      "source": "OpenStreetMap",
      "license": "ODbL",
      "verified": true,
      "createdAt": "2025-10-18T14:03:51Z"
    },
    {
      "id": "dive_site_000170",
      "name": "Uanuatkira Rock",
      "latitude": 14.421278,
      "longitude": -82.874459,
      "description": "",
      "maxDepth": 40,
      "region": "Caribbean & Atlantic",
      "source": "OpenStreetMap",
      "license": "ODbL",
      "verified": true,
      "createdAt": "2025-10-18T14:03:51Z"
    },
    {
      "id": "dive_site_000171",
      "name": "Shackle Reef",
      "latitude": 14.520352,
      "longitude": -82.84202,
      "description": "",
      "maxDepth": 40,
      "region": "Caribbean & Atlantic",
      "source": "OpenStreetMap",
      "license": "ODbL",
      "verified": true,
      "createdAt": "2025-10-18T14:03:51Z"
    },
    {
      "id": "dive_site_000172",
      "name": "Waham Reef",
      "latitude": 14.505975,
      "longitude": -82.880049,
      "description": "",
      "maxDepth": 40,
      "region": "Caribbean & Atlantic",
      "source": "OpenStreetMap",
      "license": "ODbL",
      "verified": true,
      "createdAt": "2025-10-18T14:03:51Z"
    },
    {
      "id": "dive_site_000173",
      "name": "South Ham Cay",
      "latitude": 14.582136,
      "longitude": -82.985768,
      "description": "",
      "maxDepth": 40,
      "region": "Caribbean & Atlantic",
      "source": "OpenStreetMap",
      "license": "ODbL",
      "verified": true,
      "createdAt": "2025-10-18T14:03:51Z"
    },
    {
      "id": "dive_site_000174",
      "name": "Mason Rocks",
      "latitude": 14.147042,
      "longitude": -82.782744,
      "description": "",
      "maxDepth": 40,
      "region": "Caribbean & Atlantic",
      "source": "OpenStreetMap",
      "license": "ODbL",
      "verified": true,
      "createdAt": "2025-10-18T14:03:51Z"
    },
    {
      "id": "dive_site_000175",
      "name": "The Witties",
      "latitude": 14.166527,
      "longitude": -82.740902,
      "description": "",
      "maxDepth": 40,
      "region": "Caribbean & Atlantic",
      "source": "OpenStreetMap",
      "license": "ODbL",
      "verified": true,
      "createdAt": "2025-10-18T14:03:51Z"
    },
    {
      "id": "dive_site_000176",
      "name": "Witties Reef",
      "latitude": 14.186655,
      "longitude": -82.693352,
      "description": "",
      "maxDepth": 40,
      "region": "Caribbean & Atlantic",
      "source": "OpenStreetMap",
      "license": "ODbL",
      "verified": true,
      "createdAt": "2025-10-18T14:03:51Z"
    },
    {
      "id": "dive_site_000177",
      "name": "Sam-Sam Reef",
      "latitude": 14.146033,
      "longitude": -82.726235,
      "description": "",
      "maxDepth": 40,
      "region": "Caribbean & Atlantic",
      "source": "OpenStreetMap",
      "license": "ODbL",
      "verified": true,
      "createdAt": "2025-10-18T14:03:51Z"
    },
    {
      "id": "dive_site_000178",
      "name": "Sea Devil Reef",
      "latitude": 14.120303,
      "longitude": -82.792368,
      "description": "",
      "maxDepth": 40,
      "region": "Caribbean & Atlantic",
      "source": "OpenStreetMap",
      "license": "ODbL",
      "verified": true,
      "createdAt": "2025-10-18T14:03:51Z"
    },
    {
      "id": "dive_site_000179",
      "name": "Franklin Reef",
      "latitude": 14.098528,
      "longitude": -82.711725,
      "description": "",
      "maxDepth": 40,
      "region": "Caribbean & Atlantic",
      "source": "OpenStreetMap",
      "license": "ODbL",
      "verified": true,
      "createdAt": "2025-10-18T14:03:51Z"
    },
    {
      "id": "dive_site_000180",
      "name": "Alice-Agnes Rocks",
      "latitude": 14.244158,
      "longitude": -82.997407,
      "description": "",
      "maxDepth": 40,
      "region": "Caribbean & Atlantic",
      "source": "OpenStreetMap",
      "license": "ODbL",
      "verified": true,
      "createdAt": "2025-10-18T14:03:51Z"
    },
    {
      "id": "dive_site_000181",
      "name": "Arthur Jackson",
      "latitude": 14.172001,
      "longitude": -82.855979,
      "description": "",
      "maxDepth": 40,
      "region": "Caribbean & Atlantic",
      "source": "OpenStreetMap",
      "license": "ODbL",
      "verified": true,
      "createdAt": "2025-10-18T14:03:51Z"
    },
    {
      "id": "dive_site_000182",
      "name": "John Henderson Rock",
      "latitude": 14.177355,
      "longitude": -82.749689,
      "description": "",
      "maxDepth": 40,
      "region": "Caribbean & Atlantic",
      "source": "OpenStreetMap",
      "license": "ODbL",
      "verified": true,
      "createdAt": "2025-10-18T14:03:51Z"
    },
    {
      "id": "dive_site_000183",
      "name": "Barnett Shoal",
      "latitude": 14.187117,
      "longitude": -82.589915,
      "description": "",
      "maxDepth": 40,
      "region": "Caribbean & Atlantic",
      "source": "OpenStreetMap",
      "license": "ODbL",
      "verified": true,
      "createdAt": "2025-10-18T14:03:51Z"
    },
    {
      "id": "dive_site_000184",
      "name": "Rockfish Reef",
      "latitude": 14.328249,
      "longitude": -82.662152,
      "description": "",
      "maxDepth": 40,
      "region": "Caribbean & Atlantic",
      "source": "OpenStreetMap",
      "license": "ODbL",
      "verified": true,
      "createdAt": "2025-10-18T14:03:51Z"
    },
    {
      "id": "dive_site_000185",
      "name": "Bodden Rocks",
      "latitude": 14.296022,
      "longitude": -82.598938,
      "description": "",
      "maxDepth": 40,
      "region": "Caribbean & Atlantic",
      "source": "OpenStreetMap",
      "license": "ODbL",
      "verified": true,
      "createdAt": "2025-10-18T14:03:51Z"
    },
    {
      "id": "dive_site_000186",
      "name": "Owen Shoal",
      "latitude": 14.281924,
      "longitude": -82.556859,
      "description": "",
      "maxDepth": 40,
      "region": "Caribbean & Atlantic",
      "source": "OpenStreetMap",
      "license": "ODbL",
      "verified": true,
      "createdAt": "2025-10-18T14:03:51Z"
    },
    {
      "id": "dive_site_000187",
      "name": "Loggerhead Reef",
      "latitude": 14.231824,
      "longitude": -82.770653,
      "description": "",
      "maxDepth": 40,
      "region": "Caribbean & Atlantic",
      "source": "OpenStreetMap",
      "license": "ODbL",
      "verified": true,
      "createdAt": "2025-10-18T14:03:51Z"
    },
    {
      "id": "dive_site_000188",
      "name": "Northwest Spot",
      "latitude": 14.205158,
      "longitude": -82.755745,
      "description": "",
      "maxDepth": 40,
      "region": "Caribbean & Atlantic",
      "source": "OpenStreetMap",
      "license": "ODbL",
      "verified": true,
      "createdAt": "2025-10-18T14:03:51Z"
    },
    {
      "id": "dive_site_000189",
      "name": "Cayman Reef",
      "latitude": 14.191894,
      "longitude": -82.761619,
      "description": "",
      "maxDepth": 40,
      "region": "Caribbean & Atlantic",
      "source": "OpenStreetMap",
      "license": "ODbL",
      "verified": true,
      "createdAt": "2025-10-18T14:03:51Z"
    },
    {
      "id": "dive_site_000190",
      "name": "Mary Isabella Reef",
      "latitude": 14.181162,
      "longitude": -82.824404,
      "description": "",
      "maxDepth": 40,
      "region": "Caribbean & Atlantic",
      "source": "OpenStreetMap",
      "license": "ODbL",
      "verified": true,
      "createdAt": "2025-10-18T14:03:51Z"
    },
    {
      "id": "dive_site_000191",
      "name": "Fendleys Reef",
      "latitude": 14.155432,
      "longitude": -82.79685,
      "description": "",
      "maxDepth": 40,
      "region": "Caribbean & Atlantic",
      "source": "OpenStreetMap",
      "license": "ODbL",
      "verified": true,
      "createdAt": "2025-10-18T14:03:51Z"
    },
    {
      "id": "dive_site_000192",
      "name": "Auiapuni Reef",
      "latitude": 14.519437,
      "longitude": -83.090227,
      "description": "",
      "maxDepth": 40,
      "region": "Caribbean & Atlantic",
      "source": "OpenStreetMap",
      "license": "ODbL",
      "verified": true,
      "createdAt": "2025-10-18T14:03:51Z"
    },
    {
      "id": "dive_site_000193",
      "name": "Auikera",
      "latitude": 14.502622,
      "longitude": -83.02115,
      "description": "",
      "maxDepth": 40,
      "region": "Caribbean & Atlantic",
      "source": "OpenStreetMap",
      "license": "ODbL",
      "verified": true,
      "createdAt": "2025-10-18T14:03:51Z"
    },
    {
      "id": "dive_site_000194",
      "name": "Tsiankualaia Rock",
      "latitude": 14.329507,
      "longitude": -83.062885,
      "description": "",
      "maxDepth": 40,
      "region": "Caribbean & Atlantic",
      "source": "OpenStreetMap",
      "license": "ODbL",
      "verified": true,
      "createdAt": "2025-10-18T14:03:51Z"
    },
    {
      "id": "dive_site_000195",
      "name": "Tingo Reef",
      "latitude": 14.321534,
      "longitude": -83.035827,
      "description": "",
      "maxDepth": 40,
      "region": "Caribbean & Atlantic",
      "source": "OpenStreetMap",
      "license": "ODbL",
      "verified": true,
      "createdAt": "2025-10-18T14:03:51Z"
    },
    {
      "id": "dive_site_000196",
      "name": "Southwest by South Rocks",
      "latitude": 14.286156,
      "longitude": -82.977794,
      "description": "",
      "maxDepth": 40,
      "region": "Caribbean & Atlantic",
      "source": "OpenStreetMap",
      "license": "ODbL",
      "verified": true,
      "createdAt": "2025-10-18T14:03:51Z"
    },
    {
      "id": "dive_site_000197",
      "name": "South by East Rocks",
      "latitude": 14.264123,
      "longitude": -82.943398,
      "description": "",
      "maxDepth": 40,
      "region": "Caribbean & Atlantic",
      "source": "OpenStreetMap",
      "license": "ODbL",
      "verified": true,
      "createdAt": "2025-10-18T14:03:51Z"
    },
    {
      "id": "dive_site_000198",
      "name": "Asmalera Rocks",
      "latitude": 14.34039,
      "longitude": -83.011612,
      "description": "",
      "maxDepth": 40,
      "region": "Caribbean & Atlantic",
      "source": "OpenStreetMap",
      "license": "ODbL",
      "verified": true,
      "createdAt": "2025-10-18T14:03:51Z"
    },
    {
      "id": "dive_site_000199",
      "name": "Archies Rock",
      "latitude": 14.563756,
      "longitude": -83.202923,
      "description": "",
      "maxDepth": 40,
      "region": "Caribbean & Atlantic",
      "source": "OpenStreetMap",
      "license": "ODbL",
      "verified": true,
      "createdAt": "2025-10-18T14:03:51Z"
    },
    {
      "id": "dive_site_000200",
      "name": "Uatlatara Rocks",
      "latitude": 14.560817,
      "longitude": -83.196207,
      "description": "",
      "maxDepth": 40,
      "region": "Caribbean & Atlantic",
      "source": "OpenStreetMap",
      "license": "ODbL",
      "verified": true,
      "createdAt": "2025-10-18T14:03:51Z"
    },
    {
      "id": "dive_site_000201",
      "name": "Sealark Rocks",
      "latitude": 14.367581,
      "longitude": -82.955098,
      "description": "",
      "maxDepth": 40,
      "region": "Caribbean & Atlantic",
      "source": "OpenStreetMap",
      "license": "ODbL",
      "verified": true,
      "createdAt": "2025-10-18T14:03:51Z"
    },
    {
      "id": "dive_site_000202",
      "name": "French Cay",
      "latitude": 12.464796,
      "longitude": -83.446716,
      "description": "",
      "maxDepth": 40,
      "region": "Caribbean & Atlantic",
      "source": "OpenStreetMap",
      "license": "ODbL",
      "verified": true,
      "createdAt": "2025-10-18T14:03:51Z"
    },
    {
      "id": "dive_site_000203",
      "name": "Lark Rock",
      "latitude": 12.410257,
      "longitude": -83.43745,
      "description": "",
      "maxDepth": 40,
      "region": "Caribbean & Atlantic",
      "source": "OpenStreetMap",
      "license": "ODbL",
      "verified": true,
      "createdAt": "2025-10-18T14:03:51Z"
    },
    {
      "id": "dive_site_000204",
      "name": "Mariner Shoal",
      "latitude": 12.399925,
      "longitude": -83.448898,
      "description": "",
      "maxDepth": 40,
      "region": "Caribbean & Atlantic",
      "source": "OpenStreetMap",
      "license": "ODbL",
      "verified": true,
      "createdAt": "2025-10-18T14:03:51Z"
    },
    {
      "id": "dive_site_000205",
      "name": "La Perle",
      "latitude": 14.841871,
      "longitude": -61.227879,
      "description": "",
      "maxDepth": 40,
      "region": "Caribbean & Atlantic",
      "source": "OpenStreetMap",
      "license": "ODbL",
      "verified": true,
      "createdAt": "2025-10-18T14:03:51Z"
    },
    {
      "id": "dive_site_000206",
      "name": "Fr\u00e9gate-de-Haut",
      "latitude": 16.191289,
      "longitude": -61.55208,
      "description": "Les \u00eelets \u00e0 Fr\u00e9gate (Petit Cul-de-Sac Marin) ont disparu (semble-t-il apr\u00e8s le passage du cyclone de 1928) et sont d\u00e9sormais des r\u00e9cifs connus sous le nom Fr\u00e9gate de Haut et Fr\u00e9gate de Bas.",
      "maxDepth": 40,
      "region": "Caribbean & Atlantic",
      "source": "OpenStreetMap",
      "license": "ODbL",
      "verified": true,
      "createdAt": "2025-10-18T14:03:51Z"
    },
    {
      "id": "dive_site_000207",
      "name": "Fr\u00e9gate-de-Bas",
      "latitude": 16.196249,
      "longitude": -61.555942,
      "description": "Les \u00eelets \u00e0 Fr\u00e9gate (Petit Cul-de-Sac Marin) ont disparu (semble-t-il apr\u00e8s le passage du cyclone de 1928) et sont d\u00e9sormais des r\u00e9cifs connus sous le nom Fr\u00e9gate de Haut et Fr\u00e9gate de Bas.",
      "maxDepth": 40,
      "region": "Caribbean & Atlantic",
      "source": "OpenStreetMap",
      "license": "ODbL",
      "verified": true,
      "createdAt": "2025-10-18T14:03:51Z"
    },
    {
      "id": "dive_site_000208",
      "name": "Runway Wall",
      "latitude": 24.979608,
      "longitude": -77.535187,
      "description": "",
      "maxDepth": 40,
      "region": "Caribbean & Atlantic",
      "source": "OpenStreetMap",
      "license": "ODbL",
      "verified": true,
      "createdAt": "2025-10-18T14:03:51Z"
    },
    {
      "id": "dive_site_000209",
      "name": "Bond Reef",
      "latitude": 25.008891,
      "longitude": -77.556721,
      "description": "",
      "maxDepth": 40,
      "region": "Caribbean & Atlantic",
      "source": "OpenStreetMap",
      "license": "ODbL",
      "verified": true,
      "createdAt": "2025-10-18T14:03:51Z"
    },
    {
      "id": "dive_site_000210",
      "name": "Southern Escarpment",
      "latitude": 23.494713,
      "longitude": -79.891868,
      "description": "",
      "maxDepth": 40,
      "region": "Caribbean & Atlantic",
      "source": "OpenStreetMap",
      "license": "ODbL",
      "verified": true,
      "createdAt": "2025-10-18T14:03:51Z"
    },
    {
      "id": "dive_site_000211",
      "name": "Anchor 8",
      "latitude": 23.49343,
      "longitude": -79.885258,
      "description": "",
      "maxDepth": 40,
      "region": "Caribbean & Atlantic",
      "source": "OpenStreetMap",
      "license": "ODbL",
      "verified": true,
      "createdAt": "2025-10-18T14:03:51Z"
    },
    {
      "id": "dive_site_000212",
      "name": "Southern Wall",
      "latitude": 23.490945,
      "longitude": -79.878579,
      "description": "",
      "maxDepth": 40,
      "region": "Caribbean & Atlantic",
      "source": "OpenStreetMap",
      "license": "ODbL",
      "verified": true,
      "createdAt": "2025-10-18T14:03:51Z"
    },
    {
      "id": "dive_site_000213",
      "name": "Southern Escarpment",
      "latitude": 23.483448,
      "longitude": -79.853268,
      "description": "",
      "maxDepth": 40,
      "region": "Caribbean & Atlantic",
      "source": "OpenStreetMap",
      "license": "ODbL",
      "verified": true,
      "createdAt": "2025-10-18T14:03:51Z"
    },
    {
      "id": "dive_site_000214",
      "name": "Savo Wall",
      "latitude": 23.82164,
      "longitude": -75.128257,
      "description": "",
      "maxDepth": 40,
      "region": "Caribbean & Atlantic",
      "source": "OpenStreetMap",
      "license": "ODbL",
      "verified": true,
      "createdAt": "2025-10-18T14:03:51Z"
    },
    {
      "id": "dive_site_000215",
      "name": "Caye Fortune",
      "latitude": 16.15124,
      "longitude": -61.563226,
      "description": "",
      "maxDepth": 40,
      "region": "Caribbean & Atlantic",
      "source": "OpenStreetMap",
      "license": "ODbL",
      "verified": true,
      "createdAt": "2025-10-18T14:03:51Z"
    },
    {
      "id": "dive_site_000216",
      "name": "Caye Martinique",
      "latitude": 16.140262,
      "longitude": -61.55943,
      "description": "",
      "maxDepth": 40,
      "region": "Caribbean & Atlantic",
      "source": "OpenStreetMap",
      "license": "ODbL",
      "verified": true,
      "createdAt": "2025-10-18T14:03:51Z"
    },
    {
      "id": "dive_site_000217",
      "name": "Caye Tome",
      "latitude": 16.151342,
      "longitude": -61.571782,
      "description": "",
      "maxDepth": 40,
      "region": "Caribbean & Atlantic",
      "source": "OpenStreetMap",
      "license": "ODbL",
      "verified": true,
      "createdAt": "2025-10-18T14:03:51Z"
    },
    {
      "id": "dive_site_000218",
      "name": "Mid Ham Cay",
      "latitude": 14.560652,
      "longitude": -82.966364,
      "description": "",
      "maxDepth": 40,
      "region": "Caribbean & Atlantic",
      "source": "OpenStreetMap",
      "license": "ODbL",
      "verified": true,
      "createdAt": "2025-10-18T14:03:51Z"
    },
    {
      "id": "dive_site_000219",
      "name": "Outer Mohegan",
      "latitude": 14.566873,
      "longitude": -82.96834,
      "description": "",
      "maxDepth": 40,
      "region": "Caribbean & Atlantic",
      "source": "OpenStreetMap",
      "license": "ODbL",
      "verified": true,
      "createdAt": "2025-10-18T14:03:51Z"
    },
    {
      "id": "dive_site_000220",
      "name": "Arrecife coralino",
      "latitude": 11.325113,
      "longitude": -73.956015,
      "description": "",
      "maxDepth": 40,
      "region": "Caribbean & Atlantic",
      "source": "OpenStreetMap",
      "license": "ODbL",
      "verified": true,
      "createdAt": "2025-10-18T14:03:51Z"
    },
    {
      "id": "dive_site_000221",
      "name": "\u00celet Anguille",
      "latitude": 18.223012,
      "longitude": -73.44018,
      "description": "",
      "maxDepth": 40,
      "region": "Caribbean & Atlantic",
      "source": "OpenStreetMap",
      "license": "ODbL",
      "verified": true,
      "createdAt": "2025-10-18T14:03:51Z"
    },
    {
      "id": "dive_site_000222",
      "name": "Bajo de pesca - Isla Llanta",
      "latitude": 10.153877,
      "longitude": -75.693567,
      "description": "",
      "maxDepth": 40,
      "region": "Caribbean & Atlantic",
      "source": "OpenStreetMap",
      "license": "ODbL",
      "verified": true,
      "createdAt": "2025-10-18T14:03:51Z"
    },
    {
      "id": "dive_site_000223",
      "name": "Flamingo Reef",
      "latitude": 23.547793,
      "longitude": -75.325593,
      "description": "",
      "maxDepth": 40,
      "region": "Caribbean & Atlantic",
      "source": "OpenStreetMap",
      "license": "ODbL",
      "verified": true,
      "createdAt": "2025-10-18T14:03:51Z"
    },
    {
      "id": "dive_site_000224",
      "name": "My Comberbeach",
      "latitude": 23.555362,
      "longitude": -75.30709,
      "description": "",
      "maxDepth": 40,
      "region": "Caribbean & Atlantic",
      "source": "OpenStreetMap",
      "license": "ODbL",
      "verified": true,
      "createdAt": "2025-10-18T14:03:51Z"
    },
    {
      "id": "dive_site_000225",
      "name": "Arrecife coralino",
      "latitude": 11.319694,
      "longitude": -74.078451,
      "description": "",
      "maxDepth": 40,
      "region": "Caribbean & Atlantic",
      "source": "OpenStreetMap",
      "license": "ODbL",
      "verified": true,
      "createdAt": "2025-10-18T14:03:51Z"
    },
    {
      "id": "dive_site_000226",
      "name": "Cayo Bret\u00f3n",
      "latitude": 21.11396,
      "longitude": -79.426512,
      "description": "",
      "maxDepth": 40,
      "region": "Caribbean & Atlantic",
      "source": "OpenStreetMap",
      "license": "ODbL",
      "verified": true,
      "createdAt": "2025-10-18T14:03:51Z"
    },
    {
      "id": "dive_site_000227",
      "name": "Bajo M\u00e9dano",
      "latitude": 21.829048,
      "longitude": -81.866721,
      "description": "",
      "maxDepth": 40,
      "region": "Caribbean & Atlantic",
      "source": "OpenStreetMap",
      "license": "ODbL",
      "verified": true,
      "createdAt": "2025-10-18T14:03:51Z"
    },
    {
      "id": "dive_site_000228",
      "name": "Banco Quitasue\u00f1o",
      "latitude": 14.312591,
      "longitude": -81.172058,
      "description": "",
      "maxDepth": 40,
      "region": "Caribbean & Atlantic",
      "source": "OpenStreetMap",
      "license": "ODbL",
      "verified": true,
      "createdAt": "2025-10-18T14:03:51Z"
    },
    {
      "id": "dive_site_000229",
      "name": "Bajo de Carapach\u00f3n",
      "latitude": 11.832371,
      "longitude": -66.890826,
      "description": "",
      "maxDepth": 40,
      "region": "Caribbean & Atlantic",
      "source": "OpenStreetMap",
      "license": "ODbL",
      "verified": true,
      "createdAt": "2025-10-18T14:03:51Z"
    },
    {
      "id": "dive_site_000230",
      "name": "Bajo Pel\u00f3n",
      "latitude": 10.923167,
      "longitude": -68.255032,
      "description": "",
      "maxDepth": 40,
      "region": "Caribbean & Atlantic",
      "source": "OpenStreetMap",
      "license": "ODbL",
      "verified": true,
      "createdAt": "2025-10-18T14:03:51Z"
    },
    {
      "id": "dive_site_000231",
      "name": "Arrecife de Pe\u00f1a Blanca",
      "latitude": 18.472196,
      "longitude": -67.169343,
      "description": "",
      "maxDepth": 40,
      "region": "Caribbean & Atlantic",
      "source": "OpenStreetMap",
      "license": "ODbL",
      "verified": true,
      "createdAt": "2025-10-18T14:03:51Z"
    },
    {
      "id": "dive_site_000232",
      "name": "Arrecife Pe\u00f1a Blanca",
      "latitude": 18.471319,
      "longitude": -67.169654,
      "description": "",
      "maxDepth": 40,
      "region": "Caribbean & Atlantic",
      "source": "OpenStreetMap",
      "license": "ODbL",
      "verified": true,
      "createdAt": "2025-10-18T14:03:51Z"
    },
    {
      "id": "dive_site_000233",
      "name": "Arrecife El Natural",
      "latitude": 18.465055,
      "longitude": -67.168254,
      "description": "",
      "maxDepth": 40,
      "region": "Caribbean & Atlantic",
      "source": "OpenStreetMap",
      "license": "ODbL",
      "verified": true,
      "createdAt": "2025-10-18T14:03:51Z"
    },
    {
      "id": "dive_site_000234",
      "name": "Arrecifes de Playuela",
      "latitude": 18.482504,
      "longitude": -67.165926,
      "description": "",
      "maxDepth": 40,
      "region": "Caribbean & Atlantic",
      "source": "OpenStreetMap",
      "license": "ODbL",
      "verified": true,
      "createdAt": "2025-10-18T14:03:51Z"
    },
    {
      "id": "dive_site_000235",
      "name": "Arrecife Profundo",
      "latitude": 18.497856,
      "longitude": -67.157933,
      "description": "",
      "maxDepth": 40,
      "region": "Caribbean & Atlantic",
      "source": "OpenStreetMap",
      "license": "ODbL",
      "verified": true,
      "createdAt": "2025-10-18T14:03:51Z"
    },
    {
      "id": "dive_site_000236",
      "name": "Le Banc de Sable",
      "latitude": 14.766438,
      "longitude": -60.964717,
      "description": "",
      "maxDepth": 40,
      "region": "Caribbean & Atlantic",
      "source": "OpenStreetMap",
      "license": "ODbL",
      "verified": true,
      "createdAt": "2025-10-18T14:03:51Z"
    },
    {
      "id": "dive_site_000237",
      "name": "Bucco Reef",
      "latitude": 11.180334,
      "longitude": -60.826653,
      "description": "",
      "maxDepth": 40,
      "region": "Caribbean & Atlantic",
      "source": "OpenStreetMap",
      "license": "ODbL",
      "verified": true,
      "createdAt": "2025-10-18T14:03:51Z"
    },
    {
      "id": "dive_site_000238",
      "name": "Banco del Cabo",
      "latitude": 15.238765,
      "longitude": -82.962871,
      "description": "",
      "maxDepth": 40,
      "region": "Caribbean & Atlantic",
      "source": "OpenStreetMap",
      "license": "ODbL",
      "verified": true,
      "createdAt": "2025-10-18T14:03:51Z"
    },
    {
      "id": "dive_site_000239",
      "name": "Reef edge",
      "latitude": 12.06891,
      "longitude": -68.856219,
      "description": "",
      "maxDepth": 40,
      "region": "Caribbean & Atlantic",
      "source": "OpenStreetMap",
      "license": "ODbL",
      "verified": true,
      "createdAt": "2025-10-18T14:03:51Z"
    },
    {
      "id": "dive_site_000240",
      "name": "Rachel Bank",
      "latitude": 24.74487,
      "longitude": -81.075869,
      "description": "",
      "maxDepth": 40,
      "region": "Caribbean & Atlantic",
      "source": "OpenStreetMap",
      "license": "ODbL",
      "verified": true,
      "createdAt": "2025-10-18T14:03:51Z"
    },
    {
      "id": "dive_site_000241",
      "name": "Toco Reef",
      "latitude": 10.836397,
      "longitude": -60.922195,
      "description": "",
      "maxDepth": 40,
      "region": "Caribbean & Atlantic",
      "source": "OpenStreetMap",
      "license": "ODbL",
      "verified": true,
      "createdAt": "2025-10-18T14:03:51Z"
    },
    {
      "id": "dive_site_000242",
      "name": "Banc du Singe",
      "latitude": 14.451809,
      "longitude": -60.887731,
      "description": "",
      "maxDepth": 40,
      "region": "Caribbean & Atlantic",
      "source": "OpenStreetMap",
      "license": "ODbL",
      "verified": true,
      "createdAt": "2025-10-18T14:03:51Z"
    },
    {
      "id": "dive_site_000243",
      "name": "Caye Duprey",
      "latitude": 14.457826,
      "longitude": -60.886354,
      "description": "",
      "maxDepth": 40,
      "region": "Caribbean & Atlantic",
      "source": "OpenStreetMap",
      "license": "ODbL",
      "verified": true,
      "createdAt": "2025-10-18T14:03:51Z"
    },
    {
      "id": "dive_site_000244",
      "name": "Banc du Mitan",
      "latitude": 14.462955,
      "longitude": -60.872625,
      "description": "",
      "maxDepth": 40,
      "region": "Caribbean & Atlantic",
      "source": "OpenStreetMap",
      "license": "ODbL",
      "verified": true,
      "createdAt": "2025-10-18T14:03:51Z"
    },
    {
      "id": "dive_site_000245",
      "name": "Banc Major",
      "latitude": 14.46259,
      "longitude": -60.87886,
      "description": "",
      "maxDepth": 40,
      "region": "Caribbean & Atlantic",
      "source": "OpenStreetMap",
      "license": "ODbL",
      "verified": true,
      "createdAt": "2025-10-18T14:03:51Z"
    },
    {
      "id": "dive_site_000246",
      "name": "Grand-Caye",
      "latitude": 14.458436,
      "longitude": -60.921857,
      "description": "",
      "maxDepth": 40,
      "region": "Caribbean & Atlantic",
      "source": "OpenStreetMap",
      "license": "ODbL",
      "verified": true,
      "createdAt": "2025-10-18T14:03:51Z"
    },
    {
      "id": "dive_site_000247",
      "name": "Gun Cay",
      "latitude": 17.93035,
      "longitude": -76.8359,
      "description": "",
      "maxDepth": 40,
      "region": "Caribbean & Atlantic",
      "source": "OpenStreetMap",
      "license": "ODbL",
      "verified": true,
      "createdAt": "2025-10-18T14:03:51Z"
    },
    {
      "id": "dive_site_000248",
      "name": "Rackhmans Cay",
      "latitude": 17.924046,
      "longitude": -76.839479,
      "description": "",
      "maxDepth": 40,
      "region": "Caribbean & Atlantic",
      "source": "OpenStreetMap",
      "license": "ODbL",
      "verified": true,
      "createdAt": "2025-10-18T14:03:51Z"
    },
    {
      "id": "dive_site_000249",
      "name": "West Middle Shoal",
      "latitude": 17.92276,
      "longitude": -76.847595,
      "description": "",
      "maxDepth": 40,
      "region": "Caribbean & Atlantic",
      "source": "OpenStreetMap",
      "license": "ODbL",
      "verified": true,
      "createdAt": "2025-10-18T14:03:51Z"
    },
    {
      "id": "dive_site_000250",
      "name": "Drunkenmans Cay",
      "latitude": 17.905824,
      "longitude": -76.845567,
      "description": "",
      "maxDepth": 40,
      "region": "Caribbean & Atlantic",
      "source": "OpenStreetMap",
      "license": "ODbL",
      "verified": true,
      "createdAt": "2025-10-18T14:03:51Z"
    },
    {
      "id": "dive_site_000251",
      "name": "South East Cay",
      "latitude": 17.901036,
      "longitude": -76.797717,
      "description": "",
      "maxDepth": 40,
      "region": "Caribbean & Atlantic",
      "source": "OpenStreetMap",
      "license": "ODbL",
      "verified": true,
      "createdAt": "2025-10-18T14:03:51Z"
    },
    {
      "id": "dive_site_000252",
      "name": "Maiden Cay",
      "latitude": 17.911276,
      "longitude": -76.811321,
      "description": "",
      "maxDepth": 40,
      "region": "Caribbean & Atlantic",
      "source": "OpenStreetMap",
      "license": "ODbL",
      "verified": true,
      "createdAt": "2025-10-18T14:03:51Z"
    },
    {
      "id": "dive_site_000253",
      "name": "South Cay",
      "latitude": 17.896043,
      "longitude": -76.823219,
      "description": "",
      "maxDepth": 40,
      "region": "Caribbean & Atlantic",
      "source": "OpenStreetMap",
      "license": "ODbL",
      "verified": true,
      "createdAt": "2025-10-18T14:03:51Z"
    },
    {
      "id": "dive_site_000254",
      "name": "Bush Reef",
      "latitude": 17.894425,
      "longitude": -76.868436,
      "description": "",
      "maxDepth": 40,
      "region": "Caribbean & Atlantic",
      "source": "OpenStreetMap",
      "license": "ODbL",
      "verified": true,
      "createdAt": "2025-10-18T14:03:51Z"
    },
    {
      "id": "dive_site_000255",
      "name": "One Bush Cay",
      "latitude": 18.472211,
      "longitude": -77.417575,
      "description": "",
      "maxDepth": 40,
      "region": "Caribbean & Atlantic",
      "source": "OpenStreetMap",
      "license": "ODbL",
      "verified": true,
      "createdAt": "2025-10-18T14:03:51Z"
    },
    {
      "id": "dive_site_000256",
      "name": "Bare Bush Cay",
      "latitude": 17.750996,
      "longitude": -77.036541,
      "description": "",
      "maxDepth": 40,
      "region": "Caribbean & Atlantic",
      "source": "OpenStreetMap",
      "license": "ODbL",
      "verified": true,
      "createdAt": "2025-10-18T14:03:51Z"
    },
    {
      "id": "dive_site_000257",
      "name": "Careening Island",
      "latitude": 17.880861,
      "longitude": -77.084187,
      "description": "",
      "maxDepth": 40,
      "region": "Caribbean & Atlantic",
      "source": "OpenStreetMap",
      "license": "ODbL",
      "verified": true,
      "createdAt": "2025-10-18T14:03:51Z"
    },
    {
      "id": "dive_site_000258",
      "name": "Banner Reef",
      "latitude": 16.865826,
      "longitude": -78.083268,
      "description": "",
      "maxDepth": 40,
      "region": "Caribbean & Atlantic",
      "source": "OpenStreetMap",
      "license": "ODbL",
      "verified": true,
      "createdAt": "2025-10-18T14:03:51Z"
    },
    {
      "id": "dive_site_000259",
      "name": "Bucknors Reef",
      "latitude": 18.463918,
      "longitude": -78.115089,
      "description": "",
      "maxDepth": 40,
      "region": "Caribbean & Atlantic",
      "source": "OpenStreetMap",
      "license": "ODbL",
      "verified": true,
      "createdAt": "2025-10-18T14:03:51Z"
    },
    {
      "id": "dive_site_000260",
      "name": "Cayo Great Tree",
      "latitude": 12.436304,
      "longitude": -83.417687,
      "description": "",
      "maxDepth": 40,
      "region": "Caribbean & Atlantic",
      "source": "OpenStreetMap",
      "license": "ODbL",
      "verified": true,
      "createdAt": "2025-10-18T14:03:51Z"
    },
    {
      "id": "dive_site_000261",
      "name": "Arrecife Cayo Sabinal",
      "latitude": 21.669582,
      "longitude": -77.153817,
      "description": "",
      "maxDepth": 40,
      "region": "Caribbean & Atlantic",
      "source": "OpenStreetMap",
      "license": "ODbL",
      "verified": true,
      "createdAt": "2025-10-18T14:03:51Z"
    },
    {
      "id": "dive_site_000262",
      "name": "Arrecife Playa Santa Luc\u00eda",
      "latitude": 21.598431,
      "longitude": -77.0479,
      "description": "",
      "maxDepth": 40,
      "region": "Caribbean & Atlantic",
      "source": "OpenStreetMap",
      "license": "ODbL",
      "verified": true,
      "createdAt": "2025-10-18T14:03:51Z"
    },
    {
      "id": "dive_site_000263",
      "name": "Banco de Cazones",
      "latitude": 22.133982,
      "longitude": -81.528468,
      "description": "",
      "maxDepth": 40,
      "region": "Caribbean & Atlantic",
      "source": "OpenStreetMap",
      "license": "ODbL",
      "verified": true,
      "createdAt": "2025-10-18T14:03:51Z"
    },
    {
      "id": "dive_site_000264",
      "name": "Robin's Landing Water Hole",
      "latitude": 17.254643,
      "longitude": -62.663342,
      "description": "",
      "maxDepth": 40,
      "region": "Caribbean & Atlantic",
      "source": "OpenStreetMap",
      "license": "ODbL",
      "verified": true,
      "createdAt": "2025-10-18T14:03:51Z"
    },
    {
      "id": "dive_site_000265",
      "name": "Eagle Shoal",
      "latitude": 18.305709,
      "longitude": -64.689688,
      "description": "",
      "maxDepth": 40,
      "region": "Caribbean & Atlantic",
      "source": "OpenStreetMap",
      "license": "ODbL",
      "verified": true,
      "createdAt": "2025-10-18T14:03:51Z"
    },
    {
      "id": "dive_site_000266",
      "name": "Baignoire de Jos\u00e9phine",
      "latitude": 14.628488,
      "longitude": -60.849534,
      "description": "",
      "maxDepth": 40,
      "region": "Caribbean & Atlantic",
      "source": "OpenStreetMap",
      "license": "ODbL",
      "verified": true,
      "createdAt": "2025-10-18T14:03:51Z"
    },
    {
      "id": "dive_site_000267",
      "name": "Bishop reef",
      "latitude": 17.009103,
      "longitude": -61.779849,
      "description": "",
      "maxDepth": 40,
      "region": "Caribbean & Atlantic",
      "source": "OpenStreetMap",
      "license": "ODbL",
      "verified": true,
      "createdAt": "2025-10-18T14:03:51Z"
    },
    {
      "id": "dive_site_000268",
      "name": "Maria Island Reef",
      "latitude": 13.736275,
      "longitude": -60.934209,
      "description": "",
      "maxDepth": 40,
      "region": "Caribbean & Atlantic",
      "source": "OpenStreetMap",
      "license": "ODbL",
      "verified": true,
      "createdAt": "2025-10-18T14:03:51Z"
    },
    {
      "id": "dive_site_000269",
      "name": "White Shoal",
      "latitude": 24.637063,
      "longitude": -82.901865,
      "description": "",
      "maxDepth": 40,
      "region": "Caribbean & Atlantic",
      "source": "OpenStreetMap",
      "license": "ODbL",
      "verified": true,
      "createdAt": "2025-10-18T14:03:51Z"
    },
    {
      "id": "dive_site_000270",
      "name": "Brilliant Shoal",
      "latitude": 24.660827,
      "longitude": -82.890276,
      "description": "",
      "maxDepth": 40,
      "region": "Caribbean & Atlantic",
      "source": "OpenStreetMap",
      "license": "ODbL",
      "verified": true,
      "createdAt": "2025-10-18T14:03:51Z"
    },
    {
      "id": "dive_site_000272",
      "name": "Saba Bank",
      "latitude": 17.46747,
      "longitude": -63.509751,
      "description": "",
      "maxDepth": 40,
      "region": "Caribbean & Atlantic",
      "source": "OpenStreetMap",
      "license": "ODbL",
      "verified": true,
      "createdAt": "2025-10-18T14:03:51Z"
    },
    {
      "id": "dive_site_000273",
      "name": "Las Hojitas",
      "latitude": 17.965721,
      "longitude": -66.637215,
      "description": "",
      "maxDepth": 40,
      "region": "Caribbean & Atlantic",
      "source": "OpenStreetMap",
      "license": "ODbL",
      "verified": true,
      "createdAt": "2025-10-18T14:03:51Z"
    },
    {
      "id": "dive_site_000274",
      "name": "Cayo Viejo",
      "latitude": 17.958792,
      "longitude": -66.648828,
      "description": "",
      "maxDepth": 40,
      "region": "Caribbean & Atlantic",
      "source": "OpenStreetMap",
      "license": "ODbL",
      "verified": true,
      "createdAt": "2025-10-18T14:03:51Z"
    },
    {
      "id": "dive_site_000275",
      "name": "Ned Thomas Cay",
      "latitude": 14.164363,
      "longitude": -82.806212,
      "description": "",
      "maxDepth": 40,
      "region": "Caribbean & Atlantic",
      "source": "OpenStreetMap",
      "license": "ODbL",
      "verified": true,
      "createdAt": "2025-10-18T14:03:51Z"
    },
    {
      "id": "dive_site_000276",
      "name": "White Reef",
      "latitude": 14.445299,
      "longitude": -82.69193,
      "description": "",
      "maxDepth": 40,
      "region": "Caribbean & Atlantic",
      "source": "OpenStreetMap",
      "license": "ODbL",
      "verified": true,
      "createdAt": "2025-10-18T14:03:51Z"
    },
    {
      "id": "dive_site_000277",
      "name": "Porgee Reef",
      "latitude": 14.434244,
      "longitude": -82.656895,
      "description": "",
      "maxDepth": 40,
      "region": "Caribbean & Atlantic",
      "source": "OpenStreetMap",
      "license": "ODbL",
      "verified": true,
      "createdAt": "2025-10-18T14:03:51Z"
    },
    {
      "id": "dive_site_000278",
      "name": "Farrel Reef",
      "latitude": 14.358125,
      "longitude": -82.701025,
      "description": "",
      "maxDepth": 40,
      "region": "Caribbean & Atlantic",
      "source": "OpenStreetMap",
      "license": "ODbL",
      "verified": true,
      "createdAt": "2025-10-18T14:03:51Z"
    },
    {
      "id": "dive_site_000279",
      "name": "Eliza Reef",
      "latitude": 14.33432,
      "longitude": -82.711902,
      "description": "",
      "maxDepth": 40,
      "region": "Caribbean & Atlantic",
      "source": "OpenStreetMap",
      "license": "ODbL",
      "verified": true,
      "createdAt": "2025-10-18T14:03:51Z"
    },
    {
      "id": "dive_site_000280",
      "name": "London Reef",
      "latitude": 14.322672,
      "longitude": -82.594753,
      "description": "",
      "maxDepth": 40,
      "region": "Caribbean & Atlantic",
      "source": "OpenStreetMap",
      "license": "ODbL",
      "verified": true,
      "createdAt": "2025-10-18T14:03:51Z"
    },
    {
      "id": "dive_site_000281",
      "name": "El Moj\u00f3n",
      "latitude": 11.948978,
      "longitude": -83.720401,
      "description": "",
      "maxDepth": 40,
      "region": "Caribbean & Atlantic",
      "source": "OpenStreetMap",
      "license": "ODbL",
      "verified": true,
      "createdAt": "2025-10-18T14:03:51Z"
    },
    {
      "id": "dive_site_000282",
      "name": "Williams Cay",
      "latitude": 11.999917,
      "longitude": -83.749225,
      "description": "",
      "maxDepth": 40,
      "region": "Caribbean & Atlantic",
      "source": "OpenStreetMap",
      "license": "ODbL",
      "verified": true,
      "createdAt": "2025-10-18T14:03:51Z"
    },
    {
      "id": "dive_site_000283",
      "name": "Shallow Reef Crest and Spur and grooves",
      "latitude": 17.933006,
      "longitude": -76.660311,
      "description": "Shallow Reef Crest and Spur and grooves",
      "maxDepth": 40,
      "region": "Caribbean & Atlantic",
      "source": "OpenStreetMap",
      "license": "ODbL",
      "verified": true,
      "createdAt": "2025-10-18T14:03:51Z"
    },
    {
      "id": "dive_site_000284",
      "name": "Caye \u00e0 l'Anglais",
      "latitude": 16.209614,
      "longitude": -61.568483,
      "description": "",
      "maxDepth": 40,
      "region": "Caribbean & Atlantic",
      "source": "OpenStreetMap",
      "license": "ODbL",
      "verified": true,
      "createdAt": "2025-10-18T14:03:51Z"
    },
    {
      "id": "dive_site_000285",
      "name": "Caye Gros Loup",
      "latitude": 16.213013,
      "longitude": -61.553667,
      "description": "",
      "maxDepth": 40,
      "region": "Caribbean & Atlantic",
      "source": "OpenStreetMap",
      "license": "ODbL",
      "verified": true,
      "createdAt": "2025-10-18T14:03:51Z"
    },
    {
      "id": "dive_site_000286",
      "name": "Piece of Cake",
      "latitude": 25.091794,
      "longitude": -77.398282,
      "description": "",
      "maxDepth": 40,
      "region": "Caribbean & Atlantic",
      "source": "OpenStreetMap",
      "license": "ODbL",
      "verified": true,
      "createdAt": "2025-10-18T14:03:51Z"
    },
    {
      "id": "dive_site_000287",
      "name": "East End Reef",
      "latitude": 25.04691,
      "longitude": -77.236115,
      "description": "",
      "maxDepth": 40,
      "region": "Caribbean & Atlantic",
      "source": "OpenStreetMap",
      "license": "ODbL",
      "verified": true,
      "createdAt": "2025-10-18T14:03:51Z"
    },
    {
      "id": "dive_site_000288",
      "name": "Clifton Wall",
      "latitude": 25.006509,
      "longitude": -77.553425,
      "description": "",
      "maxDepth": 40,
      "region": "Caribbean & Atlantic",
      "source": "OpenStreetMap",
      "license": "ODbL",
      "verified": true,
      "createdAt": "2025-10-18T14:03:51Z"
    },
    {
      "id": "dive_site_000289",
      "name": "Sand Chute",
      "latitude": 25.010433,
      "longitude": -77.55956,
      "description": "",
      "maxDepth": 40,
      "region": "Caribbean & Atlantic",
      "source": "OpenStreetMap",
      "license": "ODbL",
      "verified": true,
      "createdAt": "2025-10-18T14:03:51Z"
    },
    {
      "id": "dive_site_000290",
      "name": "Lindy's Reef",
      "latitude": 25.104207,
      "longitude": -77.175287,
      "description": "",
      "maxDepth": 40,
      "region": "Caribbean & Atlantic",
      "source": "OpenStreetMap",
      "license": "ODbL",
      "verified": true,
      "createdAt": "2025-10-18T14:03:51Z"
    },
    {
      "id": "dive_site_000291",
      "name": "Dog Rocks 4",
      "latitude": 24.046116,
      "longitude": -79.962047,
      "description": "",
      "maxDepth": 40,
      "region": "Caribbean & Atlantic",
      "source": "OpenStreetMap",
      "license": "ODbL",
      "verified": true,
      "createdAt": "2025-10-18T14:03:51Z"
    },
    {
      "id": "dive_site_000292",
      "name": "Dog Rocks 3",
      "latitude": 24.040061,
      "longitude": -79.956431,
      "description": "",
      "maxDepth": 40,
      "region": "Caribbean & Atlantic",
      "source": "OpenStreetMap",
      "license": "ODbL",
      "verified": true,
      "createdAt": "2025-10-18T14:03:51Z"
    },
    {
      "id": "dive_site_000293",
      "name": "Elbow Cays 5",
      "latitude": 23.95392,
      "longitude": -80.446216,
      "description": "",
      "maxDepth": 40,
      "region": "Caribbean & Atlantic",
      "source": "OpenStreetMap",
      "license": "ODbL",
      "verified": true,
      "createdAt": "2025-10-18T14:03:51Z"
    },
    {
      "id": "dive_site_000294",
      "name": "Elbow Cays 4",
      "latitude": 23.933249,
      "longitude": -80.468395,
      "description": "",
      "maxDepth": 40,
      "region": "Caribbean & Atlantic",
      "source": "OpenStreetMap",
      "license": "ODbL",
      "verified": true,
      "createdAt": "2025-10-18T14:03:51Z"
    },
    {
      "id": "dive_site_000295",
      "name": "Elbow Cays 6",
      "latitude": 23.935632,
      "longitude": -80.471538,
      "description": "",
      "maxDepth": 40,
      "region": "Caribbean & Atlantic",
      "source": "OpenStreetMap",
      "license": "ODbL",
      "verified": true,
      "createdAt": "2025-10-18T14:03:51Z"
    },
    {
      "id": "dive_site_000296",
      "name": "Inner Bommies",
      "latitude": 23.781751,
      "longitude": -80.272851,
      "description": "",
      "maxDepth": 40,
      "region": "Caribbean & Atlantic",
      "source": "OpenStreetMap",
      "license": "ODbL",
      "verified": true,
      "createdAt": "2025-10-18T14:03:51Z"
    },
    {
      "id": "dive_site_000297",
      "name": "Cay Sal Island",
      "latitude": 23.690089,
      "longitude": -80.404435,
      "description": "",
      "maxDepth": 40,
      "region": "Caribbean & Atlantic",
      "source": "OpenStreetMap",
      "license": "ODbL",
      "verified": true,
      "createdAt": "2025-10-18T14:03:51Z"
    },
    {
      "id": "dive_site_000298",
      "name": "Something to See",
      "latitude": 24.817795,
      "longitude": -76.347861,
      "description": "",
      "maxDepth": 40,
      "region": "Caribbean & Atlantic",
      "source": "OpenStreetMap",
      "license": "ODbL",
      "verified": true,
      "createdAt": "2025-10-18T14:03:51Z"
    },
    {
      "id": "dive_site_000299",
      "name": "Tunnel Rock",
      "latitude": 24.815211,
      "longitude": -76.349513,
      "description": "",
      "maxDepth": 40,
      "region": "Caribbean & Atlantic",
      "source": "OpenStreetMap",
      "license": "ODbL",
      "verified": true,
      "createdAt": "2025-10-18T14:03:51Z"
    },
    {
      "id": "dive_site_000300",
      "name": "Desi's Spot",
      "latitude": 23.904924,
      "longitude": -75.117473,
      "description": "",
      "maxDepth": 40,
      "region": "Caribbean & Atlantic",
      "source": "OpenStreetMap",
      "license": "ODbL",
      "verified": true,
      "createdAt": "2025-10-18T14:03:51Z"
    },
    {
      "id": "dive_site_000301",
      "name": "Clyde's Wall",
      "latitude": 23.809194,
      "longitude": -75.116995,
      "description": "",
      "maxDepth": 40,
      "region": "Caribbean & Atlantic",
      "source": "OpenStreetMap",
      "license": "ODbL",
      "verified": true,
      "createdAt": "2025-10-18T14:03:51Z"
    },
    {
      "id": "dive_site_000302",
      "name": "Unicorn Reef",
      "latitude": 23.80686,
      "longitude": -75.080647,
      "description": "",
      "maxDepth": 40,
      "region": "Caribbean & Atlantic",
      "source": "OpenStreetMap",
      "license": "ODbL",
      "verified": true,
      "createdAt": "2025-10-18T14:03:51Z"
    },
    {
      "id": "dive_site_000303",
      "name": "Central Bank",
      "latitude": 23.857343,
      "longitude": -75.097441,
      "description": "",
      "maxDepth": 40,
      "region": "Caribbean & Atlantic",
      "source": "OpenStreetMap",
      "license": "ODbL",
      "verified": true,
      "createdAt": "2025-10-18T14:03:51Z"
    },
    {
      "id": "dive_site_000304",
      "name": "Banco Alicia",
      "latitude": 16.057099,
      "longitude": -79.364064,
      "description": "",
      "maxDepth": 40,
      "region": "Caribbean & Atlantic",
      "source": "OpenStreetMap",
      "license": "ODbL",
      "verified": true,
      "createdAt": "2025-10-18T14:03:51Z"
    },
    {
      "id": "dive_site_000305",
      "name": "North Side, Middle (Fry Fish Bar)",
      "latitude": 12.302606,
      "longitude": -82.987086,
      "description": "",
      "maxDepth": 40,
      "region": "Caribbean & Atlantic",
      "source": "OpenStreetMap",
      "license": "ODbL",
      "verified": true,
      "createdAt": "2025-10-18T14:03:51Z"
    },
    {
      "id": "dive_site_000306",
      "name": "North Side, Left",
      "latitude": 12.301929,
      "longitude": -82.988345,
      "description": "",
      "maxDepth": 40,
      "region": "Caribbean & Atlantic",
      "source": "OpenStreetMap",
      "license": "ODbL",
      "verified": true,
      "createdAt": "2025-10-18T14:03:51Z"
    },
    {
      "id": "dive_site_000307",
      "name": "North Side, Right (Yemaya)",
      "latitude": 12.302798,
      "longitude": -82.984985,
      "description": "",
      "maxDepth": 40,
      "region": "Caribbean & Atlantic",
      "source": "OpenStreetMap",
      "license": "ODbL",
      "verified": true,
      "createdAt": "2025-10-18T14:03:51Z"
    },
    {
      "id": "dive_site_000308",
      "name": "Bancos de Salmedina",
      "latitude": 10.380437,
      "longitude": -75.664899,
      "description": "",
      "maxDepth": 40,
      "region": "Caribbean & Atlantic",
      "source": "OpenStreetMap",
      "license": "ODbL",
      "verified": true,
      "createdAt": "2025-10-18T14:03:51Z"
    },
    {
      "id": "dive_site_000309",
      "name": "Bancos del Cabo Falso",
      "latitude": 15.51431,
      "longitude": -83.047393,
      "description": "",
      "maxDepth": 40,
      "region": "Caribbean & Atlantic",
      "source": "OpenStreetMap",
      "license": "ODbL",
      "verified": true,
      "createdAt": "2025-10-18T14:03:51Z"
    },
    {
      "id": "dive_site_000310",
      "name": "mozart",
      "latitude": 20.170419,
      "longitude": -71.606104,
      "description": "",
      "maxDepth": 40,
      "region": "Caribbean & Atlantic",
      "source": "OpenStreetMap",
      "license": "ODbL",
      "verified": true,
      "createdAt": "2025-10-18T14:03:51Z"
    }
  ],
  "metadata": {
    "count": 165,
    "bounds": {
      "min_lat": 10.153877,
      "max_lat": 25.811326,
      "min_lon": -83.749225,
      "max_lon": -60.826653,
      "center_lat": 17.271157333333335,
      "center_lon": -76.10637037575756
    }
  }
}